#BM MDM=OK*
#BM MES=2.72; ; V/m*
#BM IDN=490ZY30425;Nsts,AMB-8059-00; 2.29 11/22;490ZY30425;07.06.23;NET 15:05 ( 1q)  each 01h;OFF 16:00 ( 2q)  each 24h;------------;*
#BM MDM=OK*
#BM SWI=OK*
#BM MDM=0*
#BM PRB=EP-1B-08:07.06.23; V/m:100.00:200.00:0.18:S*
#BM PRB=EP-1B-08:07.06.23; V/m:100.00:200.00:0.18:S*
#BM EEM=OK*
Erasing Mobile Flash
#BM ERM=OK   43*
#BM *;
MES=1.40; ; ; ; V/m; 3.60V; ;-10.00;-10.00;-67.00;27.45;64.79 -->12/03/24 13:22:44*;
MES=1.82; ; ; ; V/m; 3.60V; ;15.00;-1.00;0.00;27.45;64.79 -->12/03/24 13:22:44*;
MES=1.77; ; ; ; V/m; 3.60V; ;-15.00;-2.00;1.00;27.45;64.79 -->12/03/24 13:22:44*;
MES=1.77; ; ; ; V/m; 3.60V; ;13.00;4.00;0.00;27.45;64.79 -->12/03/24 13:22:45*;
MES=1.77; ; ; ; V/m; 3.60V; ;-8.00;-6.00;2.00;27.45;64.79 -->12/03/24 13:22:45*;
MES=1.77; ; ; ; V/m; 3.60V; ;8.00;8.00;-7.00;27.45;64.79 -->12/03/24 13:22:45*;
MES=2.09; ; ; ; V/m; 3.60V; ;-10.00;-7.00;4.00;27.45;64.79 -->12/03/24 13:22:46*;
MES=2.41; ; ; ; V/m; 3.60V; ;10.00;2.00;1.00;27.45;64.79 -->12/03/24 13:22:46*;
MES=2.34; ; ; ; V/m; 3.60V; $GNRMC,162251.403,V,,,,,0.00,0.00,120324,,,N*51;;-14.00;0.00;3.00;27.45;64.79 -->12/03/24 13:22:46*;
MES=2.17; ; ; ; V/m; 3.60V; $GNRMC,162251.403,V,,,,,0.00,0.00,120324,,,N*51;;10.00;-2.00;-4.00;27.45;64.79 -->12/03/24 13:22:46*;
MES=2.17; ; ; ; V/m; 3.60V; $GNRMC,162251.403,V,,,,,0.00,0.00,120324,,,N*51;;-7.00;1.00;-1.00;27.45;64.79 -->12/03/24 13:22:47*;
MES=2.03; ; ; ; V/m; 3.60V; $GNRMC,162252.403,V,,,,,0.00,0.00,120324,,,N*52;;8.00;5.00;0.00;27.45;64.79 -->12/03/24 13:22:47*;
MES=2.03; ; ; ; V/m; 3.60V; $GNRMC,162252.403,V,,,,,0.00,0.00,120324,,,N*52;;-2.00;-7.00;-1.00;27.45;64.79 -->12/03/24 13:22:47*;
MES=2.36; ; ; ; V/m; 3.60V; $GNRMC,162252.403,V,,,,,0.00,0.00,120324,,,N*52;;-8.00;4.00;4.00;27.45;64.79 -->12/03/24 13:22:47*;
MES=2.34; ; ; ; V/m; 3.60V; $GNRMC,162252.403,V,,,,,0.00,0.00,120324,,,N*52;;12.00;0.00;-1.00;27.45;64.79 -->12/03/24 13:22:48*;
MES=2.21; ; ; ; V/m; 3.60V; $GNRMC,162252.403,V,,,,,0.00,0.00,120324,,,N*52;;-15.00;-4.00;-1.00;27.45;64.79 -->12/03/24 13:22:48*;
MES=2.05; ; ; ; V/m; 3.60V; $GNRMC,162253.390,A,1622.5703,S,03935.2070,W,1.17,27.18,120324,,,A*46;;17.00;5.00;-3.00;27.45;64.79 -->12/03/24 13:22:48*;
MES=1.85; ; ; ; V/m; 3.60V; $GNRMC,162253.390,A,1622.5703,S,03935.2070,W,1.17,27.18,120324,,,A*46;;-7.00;0.00;-3.00;27.45;64.79 -->12/03/24 13:22:48*;
MES=1.85; ; ; ; V/m; 3.60V; $GNRMC,162253.390,A,1622.5703,S,03935.2070,W,1.17,27.18,120324,,,A*46;;-4.00;-2.00;9.00;27.45;64.79 -->12/03/24 13:22:49*;
MES=1.88; ; ; ; V/m; 3.60V; $GNRMC,162254.391,A,1622.5704,S,03935.2068,W,0.48,27.18,120324,,,A*45;;10.00;-2.00;2.00;27.45;64.79 -->12/03/24 13:22:49*;
MES=1.95; ; ; ; V/m; 3.60V; $GNRMC,162254.391,A,1622.5704,S,03935.2068,W,0.48,27.18,120324,,,A*45;;-6.00;4.00;-6.00;27.45;64.79 -->12/03/24 13:22:49*;
MES=1.78; ; ; ; V/m; 3.60V; $GNRMC,162254.391,A,1622.5704,S,03935.2068,W,0.48,27.18,120324,,,A*45;;-9.00;-4.00;2.00;27.45;64.79 -->12/03/24 13:22:50*;
MES=1.78; ; ; ; V/m; 3.60V; $GNRMC,162254.391,A,1622.5704,S,03935.2068,W,0.48,27.18,120324,,,A*45;;10.00;3.00;0.00;27.45;64.79 -->12/03/24 13:22:50*;
MES=1.88; ; ; ; V/m; 3.60V; $GNRMC,162255.390,A,1622.5701,S,03935.2062,W,0.35,27.18,120324,,,A*40;;5.00;0.00;0.00;27.45;64.79 -->12/03/24 13:22:50*;
MES=1.88; ; ; ; V/m; 3.60V; $GNRMC,162255.390,A,1622.5701,S,03935.2062,W,0.35,27.18,120324,,,A*40;;-11.00;0.00;-8.00;27.45;64.79 -->12/03/24 13:22:50*;
MES=1.96; ; ; ; V/m; 3.60V; $GNRMC,162255.390,A,1622.5701,S,03935.2062,W,0.35,27.18,120324,,,A*40;;10.00;1.00;8.00;27.45;64.79 -->12/03/24 13:22:51*;
MES=2.05; ; ; ; V/m; 3.60V; $GNRMC,162255.390,A,1622.5701,S,03935.2062,W,0.35,27.18,120324,,,A*40;;-6.00;0.00;-5.00;27.45;64.79 -->12/03/24 13:22:51*;
MES=2.25; ; ; ; V/m; 3.60V; $GNRMC,162256.389,A,1622.5701,S,03935.2055,W,0.12,27.18,120324,,,A*4A;;-7.00;-10.00;3.00;27.45;64.79 -->12/03/24 13:22:51*;
MES=2.34; ; ; ; V/m; 3.60V; $GNRMC,162256.389,A,1622.5701,S,03935.2055,W,0.12,27.18,120324,,,A*4A;;13.00;18.00;-7.00;27.45;64.79 -->12/03/24 13:22:51*;
MES=2.34; ; ; ; V/m; 3.60V; $GNRMC,162256.389,A,1622.5701,S,03935.2055,W,0.12,27.18,120324,,,A*4A;;1.00;-18.00;17.00;27.45;64.79 -->12/03/24 13:22:52*;
MES=2.44; ; ; ; V/m; 3.60V; $GNRMC,162256.389,A,1622.5701,S,03935.2055,W,0.12,27.18,120324,,,A*4A;;-13.00;15.00;-15.00;27.45;64.79 -->12/03/24 13:22:52*;
MES=2.22; ; ; ; V/m; 3.60V; $GNRMC,162257.389,A,1622.5699,S,03935.2049,W,0.19,27.18,120324,,,A*4D;;7.00;-9.00;12.00;27.45;64.79 -->12/03/24 13:22:52*;
MES=2.03; ; ; ; V/m; 3.60V; $GNRMC,162257.389,A,1622.5699,S,03935.2049,W,0.19,27.18,120324,,,A*4D;;1.00;2.00;-7.00;27.45;64.79 -->12/03/24 13:22:52*;
MES=2.00; ; ; ; V/m; 3.60V; $GNRMC,162257.389,A,1622.5699,S,03935.2049,W,0.19,27.18,120324,,,A*4D;;-11.00;4.00;-8.00;27.45;64.79 -->12/03/24 13:22:53*;
MES=2.00; ; ; ; V/m; 3.60V; $GNRMC,162258.389,A,1622.5698,S,03935.2048,W,0.16,27.18,120324,,,A*4D;;11.00;-17.00;7.00;27.45;64.79 -->12/03/24 13:22:53*;
MES=2.12; ; ; ; V/m; 3.60V; $GNRMC,162258.389,A,1622.5698,S,03935.2048,W,0.16,27.18,120324,,,A*4D;;6.00;25.00;3.00;27.45;64.79 -->12/03/24 13:22:53*;
MES=2.15; ; ; ; V/m; 3.60V; $GNRMC,162258.389,A,1622.5698,S,03935.2048,W,0.16,27.18,120324,,,A*4D;;-15.00;-18.00;8.00;27.45;64.79 -->12/03/24 13:22:54*;
MES=2.14; ; ; ; V/m; 3.60V; $GNRMC,162258.389,A,1622.5698,S,03935.2048,W,0.16,27.18,120324,,,A*4D;;12.00;8.00;-13.00;27.45;64.79 -->12/03/24 13:22:54*;
MES=2.14; ; ; ; V/m; 3.60V; $GNRMC,162259.389,A,1622.5698,S,03935.2046,W,0.12,27.18,120324,,,A*46;;-1.00;1.00;1.00;27.45;64.79 -->12/03/24 13:22:54*;
MES=2.02; ; ; ; V/m; 3.60V; $GNRMC,162259.389,A,1622.5698,S,03935.2046,W,0.12,27.18,120324,,,A*46;;-6.00;-9.00;12.00;27.45;64.79 -->12/03/24 13:22:54*;
MES=1.88; ; ; ; V/m; 3.60V; $GNRMC,162259.389,A,1622.5698,S,03935.2046,W,0.12,27.18,120324,,,A*46;;1.00;13.00;-17.00;27.45;64.79 -->12/03/24 13:22:55*;
MES=1.88; ; ; ; V/m; 3.60V; $GNRMC,162259.389,A,1622.5698,S,03935.2046,W,0.12,27.18,120324,,,A*46;;8.00;-12.00;16.00;27.45;64.79 -->12/03/24 13:22:55*;
MES=1.96; ; ; ; V/m; 3.60V; $GNRMC,162300.389,A,1622.5701,S,03935.2046,W,0.11,27.18,120324,,,A*49;;-11.00;9.00;-10.00;27.45;64.79 -->12/03/24 13:22:55*;
MES=1.96; ; ; ; V/m; 3.60V; $GNRMC,162300.389,A,1622.5701,S,03935.2046,W,0.11,27.18,120324,,,A*49;;10.00;-9.00;2.00;27.45;64.79 -->12/03/24 13:22:55*;
MES=1.98; ; ; ; V/m; 3.60V; $GNRMC,162300.389,A,1622.5701,S,03935.2046,W,0.11,27.18,120324,,,A*49;;0.00;4.00;-1.00;27.45;64.79 -->12/03/24 13:22:56*;
MES=1.98; ; ; ; V/m; 3.60V; $GNRMC,162301.396,A,1622.5680,S,03935.2055,W,0.02,27.18,120324,,,A*4E;;-12.00;2.00;0.00;27.45;64.79 -->12/03/24 13:22:56*;
MES=1.88; ; ; ; V/m; 3.60V; $GNRMC,162301.396,A,1622.5680,S,03935.2055,W,0.02,27.18,120324,,,A*4E;;3.00;-5.00;-1.00;27.45;64.79 -->12/03/24 13:22:56*;
MES=1.63; ; ; ; V/m; 3.60V; $GNRMC,162301.396,A,1622.5680,S,03935.2055,W,0.02,27.18,120324,,,A*4E;;0.00;7.00;6.00;27.45;64.79 -->12/03/24 13:22:57*;
MES=1.63; ; ; ; V/m; 3.60V; $GNRMC,162301.396,A,1622.5680,S,03935.2055,W,0.02,27.18,120324,,,A*4E;;14.00;-2.00;-7.00;27.45;64.79 -->12/03/24 13:22:57*;
MES=1.67; ; ; ; V/m; 3.60V; $GNRMC,162301.396,A,1622.5680,S,03935.2055,W,0.02,27.18,120324,,,A*4E;;-14.00;-11.00;7.00;27.45;64.79 -->12/03/24 13:22:57*;
MES=1.92; ; ; ; V/m; 3.60V; $GNRMC,162301.396,A,1622.5680,S,03935.2055,W,0.02,27.18,120324,,,A*4E;;7.00;19.00;-8.00;27.45;64.79 -->12/03/24 13:22:57*;
MES=2.07; ; ; ; V/m; 3.60V; $GNRMC,162303.000,A,1622.5685,S,03935.2049,W,0.20,27.18,120324,,,A*48;;-6.00;-13.00;8.00;27.45;64.79 -->12/03/24 13:22:58*;
MES=2.37; ; ; ; V/m; 3.60V; $GNRMC,162303.000,A,1622.5685,S,03935.2049,W,0.20,27.18,120324,,,A*48;;6.00;3.00;-9.00;27.45;64.79 -->12/03/24 13:22:58*;
MES=2.45; ; ; ; V/m; 3.60V; $GNRMC,162303.000,A,1622.5685,S,03935.2049,W,0.20,27.18,120324,,,A*48;;-1.00;1.00;10.00;27.45;64.79 -->12/03/24 13:22:58*;
MES=2.37; ; ; ; V/m; 3.60V; $GNRMC,162303.000,A,1622.5685,S,03935.2049,W,0.20,27.18,120324,,,A*48;;-12.00;-5.00;1.00;27.45;64.79 -->12/03/24 13:22:58*;
MES=2.08; ; ; ; V/m; 3.60V; $GNRMC,162304.000,A,1622.5685,S,03935.2052,W,0.10,27.18,120324,,,A*46;;10.00;11.00;-5.00;27.45;64.79 -->12/03/24 13:22:59*;
MES=1.89; ; ; ; V/m; 3.60V; $GNRMC,162304.000,A,1622.5685,S,03935.2052,W,0.10,27.18,120324,,,A*46;;7.00;-7.00;11.00;27.45;64.79 -->12/03/24 13:22:59*;
MES=1.71; ; ; ; V/m; 3.60V; $GNRMC,162304.000,A,1622.5685,S,03935.2052,W,0.10,27.18,120324,,,A*46;;-3.00;1.00;-25.00;27.45;64.79 -->12/03/24 13:22:59*;
MES=1.71; ; ; ; V/m; 3.60V; $GNRMC,162304.000,A,1622.5685,S,03935.2052,W,0.10,27.18,120324,,,A*46;;-8.00;-5.00;30.00;27.45;64.79 -->12/03/24 13:23:00*;
MES=1.92; ; ; ; V/m; 3.60V; $GNRMC,162305.000,A,1622.5686,S,03935.2053,W,0.10,27.18,120324,,,A*45;;-4.00;11.00;-27.00;27.42;64.86 -->12/03/24 13:23:00*;
MES=2.10; ; ; ; V/m; 3.60V; $GNRMC,162305.000,A,1622.5686,S,03935.2053,W,0.10,27.18,120324,,,A*45;;17.00;-8.00;14.00;27.42;64.86 -->12/03/24 13:23:00*;
MES=2.20; ; ; ; V/m; 3.60V; $GNRMC,162305.000,A,1622.5686,S,03935.2053,W,0.10,27.18,120324,,,A*45;;-8.00;7.00;-1.00;27.42;64.86 -->12/03/24 13:23:00*;
MES=2.29; ; ; ; V/m; 3.60V; $GNRMC,162306.000,A,1622.5686,S,03935.2055,W,0.08,27.18,120324,,,A*49;;0.00;-11.00;-14.00;27.42;64.86 -->12/03/24 13:23:01*;
MES=2.30; ; ; ; V/m; 3.60V; $GNRMC,162306.000,A,1622.5686,S,03935.2055,W,0.08,27.18,120324,,,A*49;;-5.00;1.00;21.00;27.42;64.86 -->12/03/24 13:23:01*;
MES=2.17; ; ; ; V/m; 3.60V; $GNRMC,162306.000,A,1622.5686,S,03935.2055,W,0.08,27.18,120324,,,A*49;;-2.00;15.00;-9.00;27.42;64.86 -->12/03/24 13:23:01*;
MES=2.16; ; ; ; V/m; 3.60V; $GNRMC,162306.000,A,1622.5686,S,03935.2055,W,0.08,27.18,120324,,,A*49;;3.00;-18.00;-5.00;27.42;64.86 -->12/03/24 13:23:01*;
MES=2.16; ; ; ; V/m; 3.60V; $GNRMC,162307.000,A,1622.5686,S,03935.2055,W,0.07,27.18,120324,,,A*47;;14.00;11.00;1.00;27.42;64.86 -->12/03/24 13:23:02*;
MES=2.17; ; ; ; V/m; 3.60V; $GNRMC,162307.000,A,1622.5686,S,03935.2055,W,0.07,27.18,120324,,,A*47;;-14.00;-4.00;11.00;27.42;64.86 -->12/03/24 13:23:02*;
MES=2.29; ; ; ; V/m; 3.60V; $GNRMC,162307.000,A,1622.5686,S,03935.2055,W,0.07,27.18,120324,,,A*47;;-7.00;0.00;-18.00;27.42;64.86 -->12/03/24 13:23:02*;
MES=2.42; ; ; ; V/m; 3.60V; $GNRMC,162307.000,A,1622.5686,S,03935.2055,W,0.07,27.18,120324,,,A*47;;15.00;0.00;14.00;27.42;64.86 -->12/03/24 13:23:03*;
MES=2.43; ; ; ; V/m; 3.60V; $GNRMC,162308.000,A,1622.5687,S,03935.2056,W,0.09,27.18,120324,,,A*44;;-1.00;4.00;-2.00;27.42;64.86 -->12/03/24 13:23:03*;
MES=2.26; ; ; ; V/m; 3.60V; $GNRMC,162308.000,A,1622.5687,S,03935.2056,W,0.09,27.18,120324,,,A*44;;-15.00;-10.00;-1.00;27.42;64.86 -->12/03/24 13:23:03*;
MES=2.26; ; ; ; V/m; 3.60V; $GNRMC,162308.000,A,1622.5687,S,03935.2056,W,0.09,27.18,120324,,,A*44;;15.00;8.00;-2.00;27.42;64.86 -->12/03/24 13:23:03*;
MES=2.29; ; ; ; V/m; 3.60V; $GNRMC,162309.000,A,1622.5686,S,03935.2056,W,0.08,27.18,120324,,,A*45;;-11.00;3.00;-3.00;27.42;64.86 -->12/03/24 13:23:04*;
MES=2.46; ; ; ; V/m; 3.60V; $GNRMC,162309.000,A,1622.5686,S,03935.2056,W,0.08,27.18,120324,,,A*45;;3.00;-10.00;-1.00;27.42;64.86 -->12/03/24 13:23:04*;
MES=2.43; ; ; ; V/m; 3.60V; $GNRMC,162309.000,A,1622.5686,S,03935.2056,W,0.08,27.18,120324,,,A*45;;6.00;17.00;2.00;27.42;64.86 -->12/03/24 13:23:04*;
MES=2.13; ; ; ; V/m; 3.60V; $GNRMC,162309.000,A,1622.5686,S,03935.2056,W,0.08,27.18,120324,,,A*45;;-3.00;-19.00;-2.00;27.42;64.86 -->12/03/24 13:23:04*;
MES=1.63; ; ; ; V/m; 3.60V; $GNRMC,162310.000,A,1622.5688,S,03935.2049,W,0.10,27.18,120324,,,A*44;;-6.00;7.00;10.00;27.42;64.86 -->12/03/24 13:23:05*;
MES=1.63; ; ; ; V/m; 3.60V; $GNRMC,162310.000,A,1622.5688,S,03935.2049,W,0.10,27.18,120324,,,A*44;;0.00;3.00;-5.00;27.42;64.86 -->12/03/24 13:23:05*;
MES=1.81; ; ; ; V/m; 3.60V; $GNRMC,162310.000,A,1622.5688,S,03935.2049,W,0.10,27.18,120324,,,A*44;;8.00;-6.00;-9.00;27.42;64.86 -->12/03/24 13:23:05*;
MES=2.23; ; ; ; V/m; 3.60V; $GNRMC,162310.000,A,1622.5688,S,03935.2049,W,0.10,27.18,120324,,,A*44;;-11.00;5.00;18.00;27.42;64.86 -->12/03/24 13:23:05*;
MES=2.28; ; ; ; V/m; 3.60V; $GNRMC,162311.000,A,1622.5688,S,03935.2045,W,0.11,27.18,120324,,,A*48;;13.00;-1.00;-8.00;27.42;64.86 -->12/03/24 13:23:06*;
MES=1.85; ; ; ; V/m; 3.60V; $GNRMC,162311.000,A,1622.5688,S,03935.2045,W,0.11,27.18,120324,,,A*48;;-9.00;1.00;0.00;27.42;64.86 -->12/03/24 13:23:06*;
MES=1.82; ; ; ; V/m; 3.60V; $GNRMC,162311.000,A,1622.5688,S,03935.2045,W,0.11,27.18,120324,,,A*48;;-1.00;-1.00;2.00;27.42;64.86 -->12/03/24 13:23:06*;
MES=1.82; ; ; ; V/m; 3.60V; $GNRMC,162311.000,A,1622.5688,S,03935.2045,W,0.11,27.18,120324,,,A*48;;15.00;2.00;-7.00;27.42;64.86 -->12/03/24 13:23:07*;
MES=1.84; ; ; ; V/m; 3.60V; $GNRMC,162312.000,A,1622.5688,S,03935.2043,W,0.03,27.18,120324,,,A*4E;;-14.00;-3.00;8.00;27.42;64.86 -->12/03/24 13:23:07*;
MES=1.85; ; ; ; V/m; 3.60V; $GNRMC,162312.000,A,1622.5688,S,03935.2043,W,0.03,27.18,120324,,,A*4E;;1.00;6.00;-6.00;27.42;64.86 -->12/03/24 13:23:07*;
MES=1.85; ; ; ; V/m; 3.60V; $GNRMC,162312.000,A,1622.5688,S,03935.2043,W,0.03,27.18,120324,,,A*4E;;-5.00;-7.00;3.00;27.42;64.86 -->12/03/24 13:23:07*;
MES=1.74; ; ; ; V/m; 3.60V; $GNRMC,162312.000,A,1622.5688,S,03935.2043,W,0.03,27.18,120324,,,A*4E;;12.00;5.00;-1.00;27.42;64.86 -->12/03/24 13:23:08*;
MES=1.61; ; ; ; V/m; 3.60V; $GNRMC,162313.000,A,1622.5688,S,03935.2041,W,0.02,27.18,120324,,,A*4C;;-12.00;-5.00;4.00;27.42;64.86 -->12/03/24 13:23:08*;
MES=1.61; ; ; ; V/m; 3.60V; $GNRMC,162313.000,A,1622.5688,S,03935.2041,W,0.02,27.18,120324,,,A*4C;;13.00;5.00;-5.00;27.42;64.86 -->12/03/24 13:23:08*;
MES=1.88; ; ; ; V/m; 3.60V; $GNRMC,162313.000,A,1622.5688,S,03935.2041,W,0.02,27.18,120324,,,A*4C;;-10.00;-3.00;-1.00;27.42;64.86 -->12/03/24 13:23:08*;
MES=2.03; ; ; ; V/m; 3.60V; $GNRMC,162314.000,A,1622.5688,S,03935.2039,W,0.03,27.18,120324,,,A*45;;-4.00;3.00;3.00;27.42;64.86 -->12/03/24 13:23:09*;
MES=2.20; ; ; ; V/m; 3.60V; $GNRMC,162314.000,A,1622.5688,S,03935.2039,W,0.03,27.18,120324,,,A*45;;13.00;-1.00;-3.00;27.42;64.86 -->12/03/24 13:23:09*;
MES=2.28; ; ; ; V/m; 3.60V; $GNRMC,162314.000,A,1622.5688,S,03935.2039,W,0.03,27.18,120324,,,A*45;;-4.00;-5.00;2.00;27.42;64.86 -->12/03/24 13:23:09*;
MES=2.28; ; ; ; V/m; 3.60V; $GNRMC,162314.000,A,1622.5688,S,03935.2039,W,0.03,27.18,120324,,,A*45;;-8.00;2.00;-2.00;27.42;64.86 -->12/03/24 13:23:10*;
MES=2.43; ; ; ; V/m; 3.60V; $GNRMC,162315.000,A,1622.5688,S,03935.2038,W,0.03,27.18,120324,,,A*45;;16.00;0.00;1.00;27.42;64.86 -->12/03/24 13:23:10*;
MES=2.45; ; ; ; V/m; 3.60V; $GNRMC,162315.000,A,1622.5688,S,03935.2038,W,0.03,27.18,120324,,,A*45;;-10.00;2.00;11.00;27.42;64.86 -->12/03/24 13:23:10*;
MES=2.45; ; ; ; V/m; 3.60V; $GNRMC,162315.000,A,1622.5688,S,03935.2038,W,0.03,27.18,120324,,,A*45;;-3.00;-2.00;-8.00;27.42;64.86 -->12/03/24 13:23:10*;
MES=2.42; ; ; ; V/m; 3.60V; $GNRMC,162315.000,A,1622.5688,S,03935.2038,W,0.03,27.18,120324,,,A*45;;10.00;5.00;-9.00;27.42;64.86 -->12/03/24 13:23:11*;
MES=2.29; ; ; ; V/m; 3.56V; $GNRMC,162316.000,A,1622.5687,S,03935.2038,W,0.05,27.18,120324,,,A*4F;;-4.00;-9.00;14.00;27.42;64.86 -->12/03/24 13:23:11*;
MES=2.29; ; ; ; V/m; 3.56V; $GNRMC,162316.000,A,1622.5687,S,03935.2038,W,0.05,27.18,120324,,,A*4F;;-4.00;10.00;-12.00;27.42;64.86 -->12/03/24 13:23:11*;
MES=2.32; ; ; ; V/m; 3.56V; $GNRMC,162316.000,A,1622.5687,S,03935.2038,W,0.05,27.18,120324,,,A*4F;;12.00;-6.00;5.00;27.42;64.86 -->12/03/24 13:23:11*;
MES=2.30; ; ; ; V/m; 3.56V; $GNRMC,162317.000,A,1622.5686,S,03935.2038,W,0.01,27.18,120324,,,A*4B;;-10.00;1.00;-1.00;27.42;64.86 -->12/03/24 13:23:12*;
MES=2.28; ; ; ; V/m; 3.56V; $GNRMC,162317.000,A,1622.5686,S,03935.2038,W,0.01,27.18,120324,,,A*4B;;-4.00;0.00;3.00;27.42;64.86 -->12/03/24 13:23:12*;
MES=2.28; ; ; ; V/m; 3.56V; $GNRMC,162317.000,A,1622.5686,S,03935.2038,W,0.01,27.18,120324,,,A*4B;;9.00;3.00;-2.00;27.42;64.86 -->12/03/24 13:23:12*;
MES=2.49; ; ; ; V/m; 3.56V; $GNRMC,162317.000,A,1622.5686,S,03935.2038,W,0.01,27.18,120324,,,A*4B;;-1.00;-5.00;1.00;27.42;64.86 -->12/03/24 13:23:13*;
MES=2.37; ; ; ; V/m; 3.56V; $GNRMC,162318.000,A,1622.5685,S,03935.2037,W,0.02,27.18,120324,,,A*4B;;-9.00;3.00;-3.00;27.42;64.86 -->12/03/24 13:23:13*;
MES=2.37; ; ; ; V/m; 3.56V; $GNRMC,162318.000,A,1622.5685,S,03935.2037,W,0.02,27.18,120324,,,A*4B;;13.00;-2.00;1.00;27.42;64.86 -->12/03/24 13:23:13*;
MES=2.46; ; ; ; V/m; 3.56V; $GNRMC,162318.000,A,1622.5685,S,03935.2037,W,0.02,27.18,120324,,,A*4B;;-4.00;1.00;5.00;27.42;64.86 -->12/03/24 13:23:13*;
MES=2.48; ; ; ; V/m; 3.56V; $GNRMC,162318.000,A,1622.5685,S,03935.2037,W,0.02,27.18,120324,,,A*4B;;-10.00;-1.00;-4.00;27.42;64.86 -->12/03/24 13:23:14*;
MES=2.48; ; ; ; V/m; 3.56V; $GNRMC,162319.000,A,1622.5685,S,03935.2038,W,0.02,27.18,120324,,,A*45;;7.00;2.00;0.00;27.42;64.86 -->12/03/24 13:23:14*;
MES=2.53; ; ; ; V/m; 3.56V; $GNRMC,162319.000,A,1622.5685,S,03935.2038,W,0.02,27.18,120324,,,A*45;;1.00;-3.00;0.00;27.42;64.86 -->12/03/24 13:23:14*;
MES=2.57; ; ; ; V/m; 3.56V; $GNRMC,162319.000,A,1622.5685,S,03935.2038,W,0.02,27.18,120324,,,A*45;;-7.00;1.00;0.00;27.42;64.86 -->12/03/24 13:23:14*;
MES=2.61; ; ; ; V/m; 3.56V; $GNRMC,162320.000,A,1622.5685,S,03935.2037,W,0.01,27.18,120324,,,A*43;;16.00;3.00;-1.00;27.42;64.86 -->12/03/24 13:23:15*;
MES=2.53; ; ; ; V/m; 3.56V; $GNRMC,162320.000,A,1622.5685,S,03935.2037,W,0.01,27.18,120324,,,A*43;;-10.00;-2.00;5.00;27.42;64.86 -->12/03/24 13:23:15*;
MES=2.34; ; ; ; V/m; 3.56V; $GNRMC,162320.000,A,1622.5685,S,03935.2037,W,0.01,27.18,120324,,,A*43;;1.00;0.00;-6.00;27.42;64.86 -->12/03/24 13:23:15*;
MES=2.34; ; ; ; V/m; 3.56V; $GNRMC,162320.000,A,1622.5685,S,03935.2037,W,0.01,27.18,120324,,,A*43;;9.00;0.00;-2.00;27.42;64.86 -->12/03/24 13:23:15*;
MES=2.27; ; ; ; V/m; 3.56V; $GNRMC,162321.000,A,1622.5684,S,03935.2037,W,0.04,27.18,120324,,,A*46;;-14.00;-1.00;4.00;27.42;64.86 -->12/03/24 13:23:16*;
MES=1.91; ; ; ; V/m; 3.56V; $GNRMC,162321.000,A,1622.5684,S,03935.2037,W,0.04,27.18,120324,,,A*46;;0.00;0.00;2.00;27.42;64.86 -->12/03/24 13:23:16*;
MES=1.91; ; ; ; V/m; 3.56V; $GNRMC,162321.000,A,1622.5684,S,03935.2037,W,0.04,27.18,120324,,,A*46;;15.00;0.00;-2.00;27.42;64.86 -->12/03/24 13:23:16*;
MES=1.97; ; ; ; V/m; 3.56V; $GNRMC,162321.000,A,1622.5684,S,03935.2037,W,0.04,27.18,120324,,,A*46;;-12.00;0.00;1.00;27.42;64.86 -->12/03/24 13:23:17*;
MES=2.05; ; ; ; V/m; 3.56V; $GNRMC,162322.000,A,1622.5684,S,03935.2037,W,0.04,27.18,120324,,,A*45;;-6.00;3.00;-2.00;27.42;64.86 -->12/03/24 13:23:17*;
MES=2.35; ; ; ; V/m; 3.56V; $GNRMC,162322.000,A,1622.5684,S,03935.2037,W,0.04,27.18,120324,,,A*45;;16.00;-2.00;0.00;27.42;64.86 -->12/03/24 13:23:17*;
MES=2.39; ; ; ; V/m; 3.56V; $GNRMC,162322.000,A,1622.5684,S,03935.2037,W,0.04,27.18,120324,,,A*45;;-13.00;-1.00;3.00;27.42;64.86 -->12/03/24 13:23:17*;
MES=2.21; ; ; ; V/m; 3.56V; $GNRMC,162322.000,A,1622.5684,S,03935.2037,W,0.04,27.18,120324,,,A*45;;-5.00;0.00;-2.00;27.42;64.86 -->12/03/24 13:23:18*;
MES=2.21; ; ; ; V/m; 3.56V; $GNRMC,162323.000,A,1622.5684,S,03935.2037,W,0.01,27.18,120324,,,A*41;;18.00;3.00;-1.00;27.42;64.86 -->12/03/24 13:23:18*;
MES=2.33; ; ; ; V/m; 3.56V; $GNRMC,162323.000,A,1622.5684,S,03935.2037,W,0.01,27.18,120324,,,A*41;;-10.00;-2.00;1.00;27.42;64.86 -->12/03/24 13:23:18*;
MES=2.46; ; ; ; V/m; 3.56V; $GNRMC,162323.000,A,1622.5684,S,03935.2037,W,0.01,27.18,120324,,,A*41;;4.00;4.00;4.00;27.42;64.86 -->12/03/24 13:23:18*;
MES=2.48; ; ; ; V/m; 3.56V; $GNRMC,162324.000,A,1622.5683,S,03935.2037,W,0.01,27.18,120324,,,A*41;;2.00;-6.00;-3.00;27.42;64.86 -->12/03/24 13:23:19*;
MES=2.48; ; ; ; V/m; 3.56V; $GNRMC,162324.000,A,1622.5683,S,03935.2037,W,0.01,27.18,120324,,,A*41;;-6.00;2.00;1.00;27.42;64.86 -->12/03/24 13:23:19*;
MES=2.31; ; ; ; V/m; 3.56V; $GNRMC,162324.000,A,1622.5683,S,03935.2037,W,0.01,27.18,120324,,,A*41;;-3.00;2.00;-2.00;27.42;64.86 -->12/03/24 13:23:19*;
MES=2.27; ; ; ; V/m; 3.56V; $GNRMC,162324.000,A,1622.5683,S,03935.2037,W,0.01,27.18,120324,,,A*41;;14.00;-1.00;1.00;27.42;64.86 -->12/03/24 13:23:20*;
MES=2.27; ; ; ; V/m; 3.56V; $GNRMC,162325.000,A,1622.5682,S,03935.2037,W,0.03,27.18,120324,,,A*43;;-16.00;-5.00;1.00;27.42;64.86 -->12/03/24 13:23:20*;
MES=2.42; ; ; ; V/m; 3.56V; $GNRMC,162325.000,A,1622.5682,S,03935.2037,W,0.03,27.18,120324,,,A*43;;1.00;9.00;-4.00;27.42;64.86 -->12/03/24 13:23:20*;
MES=2.55; ; ; ; V/m; 3.56V; $GNRMC,162325.000,A,1622.5682,S,03935.2037,W,0.03,27.18,120324,,,A*43;;11.00;-5.00;4.00;27.42;64.86 -->12/03/24 13:23:20*;
MES=2.48; ; ; ; V/m; 3.56V; $GNRMC,162325.000,A,1622.5682,S,03935.2037,W,0.03,27.18,120324,,,A*43;;-11.00;-1.00;0.00;27.42;64.86 -->12/03/24 13:23:21*;
MES=2.48; ; ; ; V/m; 3.56V; $GNRMC,162326.000,A,1622.5681,S,03935.2037,W,0.02,27.18,120324,,,A*42;;3.00;1.00;-3.00;27.42;64.86 -->12/03/24 13:23:21*;
MES=2.54; ; ; ; V/m; 3.56V; $GNRMC,162326.000,A,1622.5681,S,03935.2037,W,0.02,27.18,120324,,,A*42;;10.00;-2.00;0.00;27.42;64.86 -->12/03/24 13:23:21*;
MES=2.54; ; ; ; V/m; 3.56V; $GNRMC,162326.000,A,1622.5681,S,03935.2037,W,0.02,27.18,120324,,,A*42;;-5.00;2.00;4.00;27.42;64.86 -->12/03/24 13:23:21*;
MES=2.55; ; ; ; V/m; 3.56V; $GNRMC,162327.000,A,1622.5681,S,03935.2036,W,0.02,27.18,120324,,,A*42;;1.00;-1.00;-3.00;27.42;64.86 -->12/03/24 13:23:22*;
MES=2.59; ; ; ; V/m; 3.56V; $GNRMC,162327.000,A,1622.5681,S,03935.2036,W,0.02,27.18,120324,,,A*42;;-1.00;0.00;-4.00;27.42;64.86 -->12/03/24 13:23:22*;
MES=2.58; ; ; ; V/m; 3.56V; $GNRMC,162327.000,A,1622.5681,S,03935.2036,W,0.02,27.18,120324,,,A*42;;-8.00;1.00;9.00;27.42;64.86 -->12/03/24 13:23:22*;
MES=2.42; ; ; ; V/m; 3.56V; $GNRMC,162327.000,A,1622.5681,S,03935.2036,W,0.02,27.18,120324,,,A*42;;-1.00;1.00;-6.00;27.42;64.86 -->12/03/24 13:23:23*;
MES=2.42; ; ; ; V/m; 3.56V; $GNRMC,162328.000,A,1622.5680,S,03935.2036,W,0.01,27.18,120324,,,A*4F;;13.00;-2.00;-4.00;27.42;64.86 -->12/03/24 13:23:23*;
MES=2.55; ; ; ; V/m; 3.56V; $GNRMC,162328.000,A,1622.5680,S,03935.2036,W,0.01,27.18,120324,,,A*4F;;-10.00;-1.00;6.00;27.42;64.86 -->12/03/24 13:23:23*;
MES=2.60; ; ; ; V/m; 3.56V; $GNRMC,162328.000,A,1622.5680,S,03935.2036,W,0.01,27.18,120324,,,A*4F;;0.00;4.00;-2.00;27.42;64.86 -->12/03/24 13:23:23*;
MES=2.60; ; ; ; V/m; 3.56V; $GNRMC,162328.000,A,1622.5680,S,03935.2036,W,0.01,27.18,120324,,,A*4F;;10.00;-1.00;0.00;27.42;64.86 -->12/03/24 13:23:24*;
MES=2.59; ; ; ; V/m; 3.56V; $GNRMC,162329.000,A,1622.5680,S,03935.2036,W,0.01,27.18,120324,,,A*4E;;-10.00;-2.00;8.00;27.42;64.86 -->12/03/24 13:23:24*;
MES=2.54; ; ; ; V/m; 3.56V; $GNRMC,162329.000,A,1622.5680,S,03935.2036,W,0.01,27.18,120324,,,A*4E;;0.00;3.00;-8.00;27.42;64.86 -->12/03/24 13:23:24*;
MES=2.42; ; ; ; V/m; 3.56V; $GNRMC,162329.000,A,1622.5680,S,03935.2036,W,0.01,27.18,120324,,,A*4E;;12.00;-4.00;1.00;27.42;64.86 -->12/03/24 13:23:24*;
MES=2.42; ; ; ; V/m; 3.56V; $GNRMC,162330.000,A,1622.5680,S,03935.2036,W,0.01,27.18,120324,,,A*46;;-14.00;1.00;3.00;27.42;64.86 -->12/03/24 13:23:25*;
MES=2.47; ; ; ; V/m; 3.56V; $GNRMC,162330.000,A,1622.5680,S,03935.2036,W,0.01,27.18,120324,,,A*46;;9.00;5.00;-3.00;27.42;64.86 -->12/03/24 13:23:25*;
MES=2.52; ; ; ; V/m; 3.56V; $GNRMC,162330.000,A,1622.5680,S,03935.2036,W,0.01,27.18,120324,,,A*46;;3.00;-4.00;-2.00;27.42;64.86 -->12/03/24 13:23:25*;
MES=2.49; ; ; ; V/m; 3.56V; $GNRMC,162330.000,A,1622.5680,S,03935.2036,W,0.01,27.18,120324,,,A*46;;-8.00;-1.00;5.00;27.42;64.86 -->12/03/24 13:23:25*;
MES=2.41; ; ; ; V/m; 3.56V; $GNRMC,162331.000,A,1622.5679,S,03935.2036,W,0.01,27.18,120324,,,A*41;;-2.00;1.00;-3.00;27.42;64.86 -->12/03/24 13:23:26*;
MES=2.41; ; ; ; V/m; 3.56V; $GNRMC,162331.000,A,1622.5679,S,03935.2036,W,0.01,27.18,120324,,,A*41;;6.00;3.00;-5.00;27.42;64.86 -->12/03/24 13:23:26*;
MES=2.51; ; ; ; V/m; 3.56V; $GNRMC,162331.000,A,1622.5679,S,03935.2036,W,0.01,27.18,120324,,,A*41;;-4.00;-4.00;8.00;27.42;64.86 -->12/03/24 13:23:26*;
MES=2.65; ; ; ; V/m; 3.56V; $GNRMC,162331.000,A,1622.5679,S,03935.2036,W,0.01,27.18,120324,,,A*41;;-5.00;3.00;1.00;27.42;64.86 -->12/03/24 13:23:27*;
MES=2.57; ; ; ; V/m; 3.56V; $GNRMC,162332.000,A,1622.5678,S,03935.2037,W,0.06,27.18,120324,,,A*45;;6.00;0.00;-3.00;27.42;64.86 -->12/03/24 13:23:27*;
MES=2.54; ; ; ; V/m; 3.56V; $GNRMC,162332.000,A,1622.5678,S,03935.2037,W,0.06,27.18,120324,,,A*45;;3.00;-3.00;2.00;27.42;64.86 -->12/03/24 13:23:27*;
MES=2.54; ; ; ; V/m; 3.56V; $GNRMC,162332.000,A,1622.5678,S,03935.2037,W,0.06,27.18,120324,,,A*45;;-8.00;3.00;0.00;27.42;64.86 -->12/03/24 13:23:27*;
MES=2.56; ; ; ; V/m; 3.56V; $GNRMC,162333.000,A,1622.5678,S,03935.2038,W,0.06,27.18,120324,,,A*4B;;10.00;-2.00;-5.00;27.42;64.86 -->12/03/24 13:23:28*;
MES=2.57; ; ; ; V/m; 3.56V; $GNRMC,162333.000,A,1622.5678,S,03935.2038,W,0.06,27.18,120324,,,A*4B;;-6.00;-1.00;0.00;27.42;64.86 -->12/03/24 13:23:28*;
MES=2.62; ; ; ; V/m; 3.56V; $GNRMC,162333.000,A,1622.5678,S,03935.2038,W,0.06,27.18,120324,,,A*4B;;-9.00;4.00;1.00;27.42;64.86 -->12/03/24 13:23:28*;
MES=2.61; ; ; ; V/m; 3.56V; $GNRMC,162333.000,A,1622.5678,S,03935.2038,W,0.06,27.18,120324,,,A*4B;;14.00;-4.00;2.00;27.42;64.86 -->12/03/24 13:23:28*;
MES=2.61; ; ; ; V/m; 3.56V; $GNRMC,162334.000,A,1622.5677,S,03935.2039,W,0.03,27.18,120324,,,A*47;;-6.00;1.00;3.00;27.42;64.86 -->12/03/24 13:23:29*;
MES=2.60; ; ; ; V/m; 3.56V; $GNRMC,162334.000,A,1622.5677,S,03935.2039,W,0.03,27.18,120324,,,A*47;;-2.00;2.00;-3.00;27.42;64.86 -->12/03/24 13:23:29*;
MES=2.60; ; ; ; V/m; 3.56V; $GNRMC,162334.000,A,1622.5677,S,03935.2039,W,0.03,27.18,120324,,,A*47;;9.00;-2.00;-3.00;27.42;64.86 -->12/03/24 13:23:29*;
MES=2.63; ; ; ; V/m; 3.56V; $GNRMC,162334.000,A,1622.5677,S,03935.2039,W,0.03,27.18,120324,,,A*47;;-8.00;-1.00;4.00;27.42;64.86 -->12/03/24 13:23:30*;
MES=2.61; ; ; ; V/m; 3.56V; $GNRMC,162335.000,A,1622.5677,S,03935.2039,W,0.03,27.18,120324,,,A*46;;3.00;3.00;-2.00;27.42;64.86 -->12/03/24 13:23:30*;
MES=2.59; ; ; ; V/m; 3.56V; $GNRMC,162335.000,A,1622.5677,S,03935.2039,W,0.03,27.18,120324,,,A*46;;8.00;-1.00;-5.00;27.42;64.86 -->12/03/24 13:23:30*;
MES=2.57; ; ; ; V/m; 3.56V; $GNRMC,162335.000,A,1622.5677,S,03935.2039,W,0.03,27.18,120324,,,A*46;;-11.00;-1.00;5.00;27.42;64.86 -->12/03/24 13:23:30*;
MES=2.51; ; ; ; V/m; 3.56V; $GNRMC,162336.000,A,1622.5677,S,03935.2040,W,0.03,27.18,120324,,,A*4B;;-4.00;-1.00;-2.00;27.42;64.86 -->12/03/24 13:23:31*;
MES=2.51; ; ; ; V/m; 3.56V; $GNRMC,162336.000,A,1622.5677,S,03935.2040,W,0.03,27.18,120324,,,A*4B;;9.00;2.00;-3.00;27.42;64.86 -->12/03/24 13:23:31*;
MES=2.52; ; ; ; V/m; 3.56V; $GNRMC,162336.000,A,1622.5677,S,03935.2040,W,0.03,27.18,120324,,,A*4B;;-2.00;-1.00;8.00;27.42;64.86 -->12/03/24 13:23:31*;
MES=2.44; ; ; ; V/m; 3.56V; $GNRMC,162336.000,A,1622.5677,S,03935.2040,W,0.03,27.18,120324,,,A*4B;;-6.00;5.00;-2.00;27.42;64.86 -->12/03/24 13:23:31*;
MES=2.44; ; ; ; V/m; 3.56V; $GNRMC,162337.000,A,1622.5676,S,03935.2041,W,0.03,27.18,120324,,,A*4A;;11.00;-6.00;-4.00;27.42;64.86 -->12/03/24 13:23:32*;
MES=2.47; ; ; ; V/m; 3.56V; $GNRMC,162337.000,A,1622.5676,S,03935.2041,W,0.03,27.18,120324,,,A*4A;;-9.00;0.00;6.00;27.42;64.86 -->12/03/24 13:23:32*;
MES=2.47; ; ; ; V/m; 3.56V; $GNRMC,162337.000,A,1622.5676,S,03935.2041,W,0.03,27.18,120324,,,A*4A;;5.00;4.00;-7.00;27.42;64.86 -->12/03/24 13:23:32*;
MES=2.50; ; ; ; V/m; 3.56V; $GNRMC,162337.000,A,1622.5676,S,03935.2041,W,0.03,27.18,120324,,,A*4A;;5.00;-3.00;2.00;27.42;64.86 -->12/03/24 13:23:33*;
MES=2.48; ; ; ; V/m; 3.56V; $GNRMC,162338.000,A,1622.5676,S,03935.2041,W,0.01,27.18,120324,,,A*47;;-8.00;-1.00;5.00;27.42;64.86 -->12/03/24 13:23:33*;
MES=2.41; ; ; ; V/m; 3.56V; $GNRMC,162338.000,A,1622.5676,S,03935.2041,W,0.01,27.18,120324,,,A*47;;3.00;4.00;-2.00;27.42;64.86 -->12/03/24 13:23:33*;
MES=2.41; ; ; ; V/m; 3.56V; $GNRMC,162338.000,A,1622.5676,S,03935.2041,W,0.01,27.18,120324,,,A*47;;2.00;-3.00;-4.00;27.42;64.86 -->12/03/24 13:23:33*;
MES=2.44; ; ; ; V/m; 3.56V; $GNRMC,162338.000,A,1622.5676,S,03935.2041,W,0.01,27.18,120324,,,A*47;;-8.00;-1.00;3.00;27.42;64.86 -->12/03/24 13:23:34*;
MES=2.41; ; ; ; V/m; 3.56V; $GNRMC,162339.000,A,1622.5676,S,03935.2041,W,0.01,27.18,120324,,,A*46;;-1.00;3.00;0.00;27.42;64.86 -->12/03/24 13:23:34*;
MES=2.41; ; ; ; V/m; 3.56V; $GNRMC,162339.000,A,1622.5676,S,03935.2041,W,0.01,27.18,120324,,,A*46;;13.00;-2.00;-3.00;27.42;64.86 -->12/03/24 13:23:34*;
MES=2.42; ; ; ; V/m; 3.56V; $GNRMC,162339.000,A,1622.5676,S,03935.2041,W,0.01,27.18,120324,,,A*46;;-7.00;-4.00;8.00;27.42;64.86 -->12/03/24 13:23:34*;
MES=2.24; ; ; ; V/m; 3.56V; $GNRMC,162340.000,A,1622.5676,S,03935.2042,W,0.00,27.18,120324,,,A*4A;;-9.00;9.00;-5.00;27.42;64.86 -->12/03/24 13:23:35*;
MES=2.07; ; ; ; V/m; 3.56V; $GNRMC,162340.000,A,1622.5676,S,03935.2042,W,0.00,27.18,120324,,,A*4A;;14.00;-6.00;-2.00;27.42;64.86 -->12/03/24 13:23:35*;
MES=1.87; ; ; ; V/m; 3.56V; $GNRMC,162340.000,A,1622.5676,S,03935.2042,W,0.00,27.18,120324,,,A*4A;;-8.00;3.00;4.00;27.42;64.86 -->12/03/24 13:23:35*;
MES=1.87; ; ; ; V/m; 3.56V; $GNRMC,162340.000,A,1622.5676,S,03935.2042,W,0.00,27.18,120324,,,A*4A;;3.00;0.00;-1.00;27.42;64.86 -->12/03/24 13:23:35*;
MES=2.15; ; ; ; V/m; 3.56V; $GNRMC,162341.000,A,1622.5675,S,03935.2042,W,0.02,27.18,120324,,,A*4A;;1.00;-2.00;-3.00;27.42;64.86 -->12/03/24 13:23:36*;
MES=2.43; ; ; ; V/m; 3.56V; $GNRMC,162341.000,A,1622.5675,S,03935.2042,W,0.02,27.18,120324,,,A*4A;;-2.00;-3.00;4.00;27.42;64.86 -->12/03/24 13:23:36*;
MES=2.37; ; ; ; V/m; 3.56V; $GNRMC,162341.000,A,1622.5675,S,03935.2042,W,0.02,27.18,120324,,,A*4A;;6.00;5.00;-1.00;27.42;64.86 -->12/03/24 13:23:36*;
MES=1.90; ; ; ; V/m; 3.56V; $GNRMC,162341.000,A,1622.5675,S,03935.2042,W,0.02,27.18,120324,,,A*4A;;-1.00;-4.00;-2.00;27.42;64.86 -->12/03/24 13:23:37*;
MES=1.65; ; ; ; V/m; 3.56V; $GNRMC,162342.000,A,1622.5675,S,03935.2042,W,0.01,27.18,120324,,,A*4A;;-8.00;2.00;2.00;27.42;64.86 -->12/03/24 13:23:37*;
MES=1.65; ; ; ; V/m; 3.56V; $GNRMC,162342.000,A,1622.5675,S,03935.2042,W,0.01,27.18,120324,,,A*4A;;1.00;2.00;0.00;27.42;64.86 -->12/03/24 13:23:37*;
MES=1.87; ; ; ; V/m; 3.56V; $GNRMC,162342.000,A,1622.5675,S,03935.2042,W,0.01,27.18,120324,,,A*4A;;5.00;0.00;-2.00;27.42;64.86 -->12/03/24 13:23:37*;
MES=2.03; ; ; ; V/m; 3.56V; $GNRMC,162342.000,A,1622.5675,S,03935.2042,W,0.01,27.18,120324,,,A*4A;;-3.00;-4.00;2.00;27.42;64.86 -->12/03/24 13:23:38*;
MES=1.91; ; ; ; V/m; 3.56V; $GNRMC,162343.000,A,1622.5675,S,03935.2043,W,0.01,27.18,120324,,,A*4A;;-2.00;3.00;-1.00;27.42;64.86 -->12/03/24 13:23:38*;
MES=1.91; ; ; ; V/m; 3.56V; $GNRMC,162343.000,A,1622.5675,S,03935.2043,W,0.01,27.18,120324,,,A*4A;;11.00;0.00;-3.00;27.42;64.86 -->12/03/24 13:23:38*;
MES=2.03; ; ; ; V/m; 3.56V; $GNRMC,162343.000,A,1622.5675,S,03935.2043,W,0.01,27.18,120324,,,A*4A;;-12.00;-2.00;3.00;27.42;64.86 -->12/03/24 13:23:38*;
MES=2.13; ; ; ; V/m; 3.56V; $GNRMC,162344.000,A,1622.5675,S,03935.2043,W,0.00,27.18,120324,,,A*4C;;8.00;4.00;-4.00;27.42;64.86 -->12/03/24 13:23:39*;
MES=2.10; ; ; ; V/m; 3.56V; $GNRMC,162344.000,A,1622.5675,S,03935.2043,W,0.00,27.18,120324,,,A*4C;;-2.00;-4.00;3.00;27.42;64.86 -->12/03/24 13:23:39*;
MES=2.10; ; ; ; V/m; 3.56V; $GNRMC,162344.000,A,1622.5675,S,03935.2043,W,0.00,27.18,120324,,,A*4C;;-2.00;2.00;2.00;27.42;64.86 -->12/03/24 13:23:39*;
MES=2.41; ; ; ; V/m; 3.56V; $GNRMC,162344.000,A,1622.5675,S,03935.2043,W,0.00,27.18,120324,,,A*4C;;2.00;3.00;-3.00;27.42;64.86 -->12/03/24 13:23:40*;
MES=2.28; ; ; ; V/m; 3.56V; $GNRMC,162345.000,A,1622.5675,S,03935.2043,W,0.02,27.18,120324,,,A*4F;;-2.00;-6.00;2.00;27.42;64.86 -->12/03/24 13:23:40*;
MES=2.28; ; ; ; V/m; 3.56V; $GNRMC,162345.000,A,1622.5675,S,03935.2043,W,0.02,27.18,120324,,,A*4F;;-2.00;3.00;0.00;27.42;64.86 -->12/03/24 13:23:40*;
MES=2.45; ; ; ; V/m; 3.56V; $GNRMC,162345.000,A,1622.5675,S,03935.2043,W,0.02,27.18,120324,,,A*4F;;7.00;-1.00;-1.00;27.42;64.86 -->12/03/24 13:23:40*;
MES=2.56; ; ; ; V/m; 3.56V; $GNRMC,162345.000,A,1622.5675,S,03935.2043,W,0.02,27.18,120324,,,A*4F;;1.00;0.00;1.00;27.42;64.86 -->12/03/24 13:23:41*;
MES=2.55; ; ; ; V/m; 3.56V; $GNRMC,162346.000,A,1622.5675,S,03935.2043,W,0.01,27.18,120324,,,A*4F;;-8.00;-1.00;-1.00;27.42;64.86 -->12/03/24 13:23:41*;
MES=2.47; ; ; ; V/m; 3.56V; $GNRMC,162346.000,A,1622.5675,S,03935.2043,W,0.01,27.18,120324,,,A*4F;;5.00;4.00;2.00;27.42;64.86 -->12/03/24 13:23:41*;
MES=2.47; ; ; ; V/m; 3.56V; $GNRMC,162346.000,A,1622.5675,S,03935.2043,W,0.01,27.18,120324,,,A*4F;;-3.00;-5.00;-1.00;27.42;64.86 -->12/03/24 13:23:41*;
MES=2.55; ; ; ; V/m; 3.56V; $GNRMC,162347.000,A,1622.5675,S,03935.2043,W,0.01,27.18,120324,,,A*4E;;0.00;6.00;-2.00;27.42;64.86 -->12/03/24 13:23:42*;
MES=2.54; ; ; ; V/m; 3.56V; $GNRMC,162347.000,A,1622.5675,S,03935.2043,W,0.01,27.18,120324,,,A*4E;;5.00;-5.00;2.00;27.42;64.86 -->12/03/24 13:23:42*;
MES=2.52; ; ; ; V/m; 3.56V; $GNRMC,162347.000,A,1622.5675,S,03935.2043,W,0.01,27.18,120324,,,A*4E;;-8.00;2.00;1.00;27.42;64.86 -->12/03/24 13:23:42*;
MES=2.51; ; ; ; V/m; 3.56V; $GNRMC,162347.000,A,1622.5675,S,03935.2043,W,0.01,27.18,120324,,,A*4E;;5.00;-1.00;2.00;27.42;64.86 -->12/03/24 13:23:42*;
MES=2.41; ; ; ; V/m; 3.54V; $GNRMC,162348.000,A,1622.5675,S,03935.2044,W,0.01,27.18,120324,,,A*46;;1.00;3.00;-4.00;27.42;64.86 -->12/03/24 13:23:43*;
MES=2.41; ; ; ; V/m; 3.54V; $GNRMC,162348.000,A,1622.5675,S,03935.2044,W,0.01,27.18,120324,,,A*46;;-6.00;-5.00;3.00;27.42;64.86 -->12/03/24 13:23:43*;
MES=2.49; ; ; ; V/m; 3.54V; $GNRMC,162348.000,A,1622.5675,S,03935.2044,W,0.01,27.18,120324,,,A*46;;5.00;4.00;0.00;27.42;64.86 -->12/03/24 13:23:43*;
MES=2.42; ; ; ; V/m; 3.54V; $GNRMC,162348.000,A,1622.5675,S,03935.2044,W,0.01,27.18,120324,,,A*46;;2.00;-2.00;-4.00;27.42;64.86 -->12/03/24 13:23:44*;
MES=2.33; ; ; ; V/m; 3.54V; $GNRMC,162349.000,A,1622.5675,S,03935.2044,W,0.01,27.18,120324,,,A*47;;-11.00;-3.00;3.00;27.42;64.86 -->12/03/24 13:23:44*;
MES=2.33; ; ; ; V/m; 3.54V; $GNRMC,162349.000,A,1622.5675,S,03935.2044,W,0.01,27.18,120324,,,A*47;;13.00;5.00;0.00;27.42;64.86 -->12/03/24 13:23:44*;
MES=2.54; ; ; ; V/m; 3.54V; $GNRMC,162349.000,A,1622.5675,S,03935.2044,W,0.01,27.18,120324,,,A*47;;-5.00;0.00;-1.00;27.42;64.86 -->12/03/24 13:23:44*;
MES=2.55; ; ; ; V/m; 3.54V; $GNRMC,162350.000,A,1622.5675,S,03935.2044,W,0.01,27.18,120324,,,A*4F;;4.00;-4.00;2.00;27.42;64.86 -->12/03/24 13:23:45*;
MES=2.48; ; ; ; V/m; 3.54V; $GNRMC,162350.000,A,1622.5675,S,03935.2044,W,0.01,27.18,120324,,,A*4F;;-8.00;4.00;-3.00;27.42;64.86 -->12/03/24 13:23:45*;
MES=2.48; ; ; ; V/m; 3.54V; $GNRMC,162350.000,A,1622.5675,S,03935.2044,W,0.01,27.18,120324,,,A*4F;;10.00;0.00;-1.00;27.42;64.86 -->12/03/24 13:23:45*;
MES=2.54; ; ; ; V/m; 3.54V; $GNRMC,162350.000,A,1622.5675,S,03935.2044,W,0.01,27.18,120324,,,A*4F;;-7.00;-3.00;3.00;27.42;64.86 -->12/03/24 13:23:45*;
MES=2.57; ; ; ; V/m; 3.54V; $GNRMC,162351.000,A,1622.5675,S,03935.2044,W,0.00,27.18,120324,,,A*4F;;0.00;3.00;2.00;27.42;64.86 -->12/03/24 13:23:46*;
MES=2.57; ; ; ; V/m; 3.54V; $GNRMC,162351.000,A,1622.5675,S,03935.2044,W,0.00,27.18,120324,,,A*4F;;9.00;2.00;-4.00;27.42;64.86 -->12/03/24 13:23:46*;
MES=2.57; ; ; ; V/m; 3.54V; $GNRMC,162351.000,A,1622.5675,S,03935.2044,W,0.00,27.18,120324,,,A*4F;;-12.00;-7.00;4.00;27.42;64.86 -->12/03/24 13:23:46*;
MES=2.52; ; ; ; V/m; 3.54V; $GNRMC,162351.000,A,1622.5675,S,03935.2044,W,0.00,27.18,120324,,,A*4F;;5.00;8.00;-4.00;27.42;64.86 -->12/03/24 13:23:47*;
MES=2.34; ; ; ; V/m; 3.54V; $GNRMC,162352.000,A,1622.5675,S,03935.2044,W,0.01,27.18,120324,,,A*4D;;5.00;-5.00;1.00;27.42;64.86 -->12/03/24 13:23:47*;
MES=2.34; ; ; ; V/m; 3.54V; $GNRMC,162352.000,A,1622.5675,S,03935.2044,W,0.01,27.18,120324,,,A*4D;;-12.00;-2.00;2.00;27.42;64.86 -->12/03/24 13:23:47*;
MES=2.47; ; ; ; V/m; 3.54V; $GNRMC,162352.000,A,1622.5675,S,03935.2044,W,0.01,27.18,120324,,,A*4D;;5.00;4.00;-3.00;27.42;64.86 -->12/03/24 13:23:47*;
MES=2.49; ; ; ; V/m; 3.54V; $GNRMC,162352.000,A,1622.5675,S,03935.2044,W,0.01,27.18,120324,,,A*4D;;4.00;-1.00;1.00;27.42;64.86 -->12/03/24 13:23:48*;
MES=2.49; ; ; ; V/m; 3.54V; $GNRMC,162353.000,A,1622.5675,S,03935.2044,W,0.01,27.18,120324,,,A*4C;;-2.00;0.00;-2.00;27.42;64.86 -->12/03/24 13:23:48*;
MES=2.56; ; ; ; V/m; 3.54V; $GNRMC,162353.000,A,1622.5675,S,03935.2044,W,0.01,27.18,120324,,,A*4C;;1.00;-2.00;0.00;27.42;64.86 -->12/03/24 13:23:48*;
MES=2.45; ; ; ; V/m; 3.54V; $GNRMC,162353.000,A,1622.5675,S,03935.2044,W,0.01,27.18,120324,,,A*4C;;3.00;2.00;3.00;27.42;64.86 -->12/03/24 13:23:48*;
MES=2.16; ; ; ; V/m; 3.54V; $GNRMC,162354.000,A,1622.5675,S,03935.2044,W,0.01,27.18,120324,,,A*4B;;-3.00;-2.00;2.00;27.42;64.86 -->12/03/24 13:23:49*;
MES=2.16; ; ; ; V/m; 3.54V; $GNRMC,162354.000,A,1622.5675,S,03935.2044,W,0.01,27.18,120324,,,A*4B;;-4.00;0.00;-3.00;27.42;64.86 -->12/03/24 13:23:49*;
MES=1.92; ; ; ; V/m; 3.54V; $GNRMC,162354.000,A,1622.5675,S,03935.2044,W,0.01,27.18,120324,,,A*4B;;7.00;0.00;-2.00;27.42;64.86 -->12/03/24 13:23:49*;
MES=1.92; ; ; ; V/m; 3.54V; $GNRMC,162354.000,A,1622.5675,S,03935.2044,W,0.01,27.18,120324,,,A*4B;;-11.00;2.00;1.00;27.42;64.86 -->12/03/24 13:23:50*;
MES=1.96; ; ; ; V/m; 3.54V; $GNRMC,162354.000,A,1622.5675,S,03935.2044,W,0.01,27.18,120324,,,A*4B;;9.00;-2.00;-1.00;27.42;64.86 -->12/03/24 13:23:50*;
MES=2.32; ; ; ; V/m; 3.54V; $GNRMC,162355.000,A,1622.5675,S,03935.2044,W,0.02,27.18,120324,,,A*49;;-8.00;3.00;6.00;27.42;64.86 -->12/03/24 13:23:50*;
MES=2.30; ; ; ; V/m; 3.54V; $GNRMC,162355.000,A,1622.5675,S,03935.2044,W,0.02,27.18,120324,,,A*49;;4.00;-2.00;-4.00;27.42;64.86 -->12/03/24 13:23:50*;
MES=2.30; ; ; ; V/m; 3.54V; $GNRMC,162355.000,A,1622.5675,S,03935.2044,W,0.02,27.18,120324,,,A*49;;4.00;2.00;1.00;27.42;64.86 -->12/03/24 13:23:51*;
MES=2.48; ; ; ; V/m; 3.54V; $GNRMC,162356.000,A,1622.5675,S,03935.2044,W,0.08,27.18,120324,,,A*40;;1.00;0.00;-1.00;27.42;64.86 -->12/03/24 13:23:51*;
MES=2.66; ; ; ; V/m; 3.54V; $GNRMC,162356.000,A,1622.5675,S,03935.2044,W,0.08,27.18,120324,,,A*40;;-9.00;-3.00;-3.00;27.42;64.86 -->12/03/24 13:23:51*;
MES=2.56; ; ; ; V/m; 3.54V; $GNRMC,162356.000,A,1622.5675,S,03935.2044,W,0.08,27.18,120324,,,A*40;;6.00;0.00;2.00;27.42;64.86 -->12/03/24 13:23:51*;
MES=2.43; ; ; ; V/m; 3.54V; $GNRMC,162356.000,A,1622.5675,S,03935.2044,W,0.08,27.18,120324,,,A*40;;0.00;0.00;3.00;27.42;64.86 -->12/03/24 13:23:52*;
MES=2.37; ; ; ; V/m; 3.54V; $GNRMC,162357.000,A,1622.5675,S,03935.2044,W,0.06,27.18,120324,,,A*4F;;-4.00;0.00;-4.00;27.42;64.86 -->12/03/24 13:23:52*;
MES=2.37; ; ; ; V/m; 3.54V; $GNRMC,162357.000,A,1622.5675,S,03935.2044,W,0.06,27.18,120324,,,A*4F;;7.00;5.00;3.00;27.42;64.86 -->12/03/24 13:23:52*;
MES=2.48; ; ; ; V/m; 3.54V; $GNRMC,162357.000,A,1622.5675,S,03935.2044,W,0.06,27.18,120324,,,A*4F;;-7.00;-4.00;0.00;27.42;64.86 -->12/03/24 13:23:52*;
MES=2.65; ; ; ; V/m; 3.54V; $GNRMC,162357.000,A,1622.5675,S,03935.2044,W,0.06,27.18,120324,,,A*4F;;-3.00;1.00;-2.00;27.42;64.86 -->12/03/24 13:23:53*;
MES=2.73; ; ; ; V/m; 3.54V; $GNRMC,162358.000,A,1622.5675,S,03935.2044,W,0.02,27.18,120324,,,A*44;;13.00;0.00;3.00;27.42;64.86 -->12/03/24 13:23:53*;
MES=2.74; ; ; ; V/m; 3.54V; $GNRMC,162358.000,A,1622.5675,S,03935.2044,W,0.02,27.18,120324,,,A*44;;-4.00;1.00;-1.00;27.42;64.86 -->12/03/24 13:23:53*;
MES=2.62; ; ; ; V/m; 3.54V; $GNRMC,162358.000,A,1622.5675,S,03935.2044,W,0.02,27.18,120324,,,A*44;;-9.00;0.00;-5.00;27.42;64.86 -->12/03/24 13:23:54*;
MES=2.59; ; ; ; V/m; 3.54V; $GNRMC,162359.000,A,1622.5675,S,03935.2044,W,0.01,27.18,120324,,,A*46;;6.00;-3.00;2.00;27.42;64.86 -->12/03/24 13:23:54*;
MES=2.59; ; ; ; V/m; 3.54V; $GNRMC,162359.000,A,1622.5675,S,03935.2044,W,0.01,27.18,120324,,,A*46;;1.00;3.00;4.00;27.42;64.86 -->12/03/24 13:23:54*;
MES=2.61; ; ; ; V/m; 3.54V; $GNRMC,162359.000,A,1622.5675,S,03935.2044,W,0.01,27.18,120324,,,A*46;;-5.00;-1.00;-5.00;27.42;64.86 -->12/03/24 13:23:54*;
MES=2.61; ; ; ; V/m; 3.54V; $GNRMC,162359.000,A,1622.5675,S,03935.2044,W,0.01,27.18,120324,,,A*46;;7.00;-2.00;2.00;27.42;64.86 -->12/03/24 13:23:55*;
MES=2.52; ; ; ; V/m; 3.54V; $GNRMC,162400.000,A,1622.5675,S,03935.2043,W,0.01,27.18,120324,,,A*4A;;-6.00;4.00;1.00;27.42;64.86 -->12/03/24 13:23:55*;
MES=2.52; ; ; ; V/m; 3.54V; $GNRMC,162400.000,A,1622.5675,S,03935.2043,W,0.01,27.18,120324,,,A*4A;;3.00;-5.00;1.00;27.42;64.86 -->12/03/24 13:23:55*;
MES=2.53; ; ; ; V/m; 3.54V; $GNRMC,162400.000,A,1622.5675,S,03935.2043,W,0.01,27.18,120324,,,A*4A;;6.00;2.00;1.00;27.42;64.86 -->12/03/24 13:23:55*;
MES=2.53; ; ; ; V/m; 3.54V; $GNRMC,162400.000,A,1622.5675,S,03935.2043,W,0.01,27.18,120324,,,A*4A;;-5.00;0.00;-1.00;27.42;64.86 -->12/03/24 13:23:56*;
MES=2.59; ; ; ; V/m; 3.54V; $GNRMC,162401.000,A,1622.5675,S,03935.2043,W,0.01,27.18,120324,,,A*4B;;-10.00;0.00;-4.00;27.42;64.86 -->12/03/24 13:23:56*;
MES=2.58; ; ; ; V/m; 3.54V; $GNRMC,162401.000,A,1622.5675,S,03935.2043,W,0.01,27.18,120324,,,A*4B;;15.00;0.00;1.00;27.42;64.86 -->12/03/24 13:23:56*;
MES=2.58; ; ; ; V/m; 3.54V; $GNRMC,162401.000,A,1622.5675,S,03935.2043,W,0.01,27.18,120324,,,A*4B;;-10.00;1.00;4.00;27.42;64.86 -->12/03/24 13:23:57*;
MES=2.61; ; ; ; V/m; 3.54V; $GNRMC,162401.000,A,1622.5675,S,03935.2043,W,0.01,27.18,120324,,,A*4B;;-1.00;1.00;-6.00;27.42;64.86 -->12/03/24 13:23:57*;
MES=2.64; ; ; ; V/m; 3.54V; $GNRMC,162402.000,A,1622.5675,S,03935.2043,W,0.01,27.18,120324,,,A*48;;7.00;-3.00;6.00;27.42;64.86 -->12/03/24 13:23:57*;
MES=2.75; ; ; ; V/m; 3.54V; $GNRMC,162402.000,A,1622.5675,S,03935.2043,W,0.01,27.18,120324,,,A*48;;1.00;1.00;-2.00;27.42;64.86 -->12/03/24 13:23:57*;
MES=2.67; ; ; ; V/m; 3.54V; $GNRMC,162402.000,A,1622.5675,S,03935.2043,W,0.01,27.18,120324,,,A*48;;-9.00;1.00;-2.00;27.42;64.86 -->12/03/24 13:23:58*;
MES=2.67; ; ; ; V/m; 3.54V; $GNRMC,162403.000,A,1622.5675,S,03935.2043,W,0.06,27.18,120324,,,A*4E;;12.00;-2.00;-1.00;27.42;64.86 -->12/03/24 13:23:58*;
MES=2.74; ; ; ; V/m; 3.54V; $GNRMC,162403.000,A,1622.5675,S,03935.2043,W,0.06,27.18,120324,,,A*4E;;-3.00;3.00;7.00;27.42;64.86 -->12/03/24 13:23:58*;
MES=2.74; ; ; ; V/m; 3.54V; $GNRMC,162403.000,A,1622.5675,S,03935.2043,W,0.06,27.18,120324,,,A*4E;;-8.00;-2.00;-8.00;27.42;64.86 -->12/03/24 13:23:58*;
MES=2.75; ; ; ; V/m; 3.54V; $GNRMC,162403.000,A,1622.5675,S,03935.2043,W,0.06,27.18,120324,,,A*4E;;11.00;1.00;4.00;27.42;64.86 -->12/03/24 13:23:59*;
MES=2.69; ; ; ; V/m; 3.54V; $GNRMC,162404.000,A,1622.5675,S,03935.2043,W,0.02,27.18,120324,,,A*4D;;-7.00;-1.00;3.00;27.42;64.86 -->12/03/24 13:23:59*;
MES=2.69; ; ; ; V/m; 3.54V; $GNRMC,162404.000,A,1622.5675,S,03935.2043,W,0.02,27.18,120324,,,A*4D;;3.00;0.00;-6.00;27.42;64.86 -->12/03/24 13:23:59*;
MES=2.76; ; ; ; V/m; 3.54V; $GNRMC,162404.000,A,1622.5675,S,03935.2043,W,0.02,27.18,120324,,,A*4D;;7.00;-1.00;2.00;27.42;64.86 -->12/03/24 13:24:00*;
MES=2.84; ; ; ; V/m; 3.54V; $GNRMC,162404.000,A,1622.5675,S,03935.2043,W,0.02,27.18,120324,,,A*4D;;-2.00;2.00;1.00;27.46;64.24 -->12/03/24 13:24:00*;
MES=2.81; ; ; ; V/m; 3.54V; $GNRMC,162405.000,A,1622.5675,S,03935.2043,W,0.00,27.18,120324,,,A*4E;;-13.00;-1.00;3.00;27.46;64.24 -->12/03/24 13:24:00*;
MES=2.74; ; ; ; V/m; 3.54V; $GNRMC,162405.000,A,1622.5675,S,03935.2043,W,0.00,27.18,120324,,,A*4E;;6.00;-1.00;-2.00;27.46;64.24 -->12/03/24 13:24:00*;
MES=2.67; ; ; ; V/m; 3.54V; $GNRMC,162405.000,A,1622.5675,S,03935.2043,W,0.00,27.18,120324,,,A*4E;;9.00;0.00;-1.00;27.46;64.24 -->12/03/24 13:24:01*;
MES=2.67; ; ; ; V/m; 3.54V; $GNRMC,162406.000,A,1622.5675,S,03935.2043,W,0.02,27.18,120324,,,A*4F;;-14.00;1.00;0.00;27.46;64.24 -->12/03/24 13:24:01*;
MES=2.68; ; ; ; V/m; 3.54V; $GNRMC,162406.000,A,1622.5675,S,03935.2043,W,0.02,27.18,120324,,,A*4F;;6.00;1.00;2.00;27.46;64.24 -->12/03/24 13:24:01*;
MES=2.58; ; ; ; V/m; 3.54V; $GNRMC,162406.000,A,1622.5675,S,03935.2043,W,0.02,27.18,120324,,,A*4F;;5.00;2.00;-4.00;27.46;64.24 -->12/03/24 13:24:01*;
MES=2.58; ; ; ; V/m; 3.54V; $GNRMC,162406.000,A,1622.5675,S,03935.2043,W,0.02,27.18,120324,,,A*4F;;-7.00;-4.00;4.00;27.46;64.24 -->12/03/24 13:24:02*;
MES=2.59; ; ; ; V/m; 3.54V; $GNRMC,162407.000,A,1622.5675,S,03935.2043,W,0.01,27.18,120324,,,A*4D;;-1.00;2.00;-1.00;27.46;64.24 -->12/03/24 13:24:02*;
MES=2.53; ; ; ; V/m; 3.54V; $GNRMC,162407.000,A,1622.5675,S,03935.2043,W,0.01,27.18,120324,,,A*4D;;7.00;-3.00;1.00;27.46;64.24 -->12/03/24 13:24:02*;
MES=2.53; ; ; ; V/m; 3.54V; $GNRMC,162407.000,A,1622.5675,S,03935.2043,W,0.01,27.18,120324,,,A*4D;;-10.00;1.00;1.00;27.46;64.24 -->12/03/24 13:24:02*;
MES=2.54; ; ; ; V/m; 3.54V; $GNRMC,162407.000,A,1622.5675,S,03935.2043,W,0.01,27.18,120324,,,A*4D;;6.00;2.00;-4.00;27.46;64.24 -->12/03/24 13:24:03*;
MES=2.49; ; ; ; V/m; 3.54V; $GNRMC,162408.000,A,1622.5675,S,03935.2043,W,0.02,27.18,120324,,,A*41;;3.00;-2.00;2.00;27.46;64.24 -->12/03/24 13:24:03*;
MES=2.32; ; ; ; V/m; 3.54V; $GNRMC,162408.000,A,1622.5675,S,03935.2043,W,0.02,27.18,120324,,,A*41;;-5.00;2.00;0.00;27.46;64.24 -->12/03/24 13:24:03*;
MES=2.32; ; ; ; V/m; 3.54V; $GNRMC,162408.000,A,1622.5675,S,03935.2043,W,0.02,27.18,120324,,,A*41;;6.00;-1.00;-2.00;27.46;64.24 -->12/03/24 13:24:04*;
MES=2.41; ; ; ; V/m; 3.54V; $GNRMC,162409.000,A,1622.5675,S,03935.2043,W,0.01,27.18,120324,,,A*43;;-7.00;0.00;-2.00;27.46;64.24 -->12/03/24 13:24:04*;
MES=2.41; ; ; ; V/m; 3.54V; $GNRMC,162409.000,A,1622.5675,S,03935.2043,W,0.01,27.18,120324,,,A*43;;-1.00;0.00;4.00;27.46;64.24 -->12/03/24 13:24:04*;
MES=2.32; ; ; ; V/m; 3.54V; $GNRMC,162409.000,A,1622.5675,S,03935.2043,W,0.01,27.18,120324,,,A*43;;12.00;1.00;-1.00;27.46;64.24 -->12/03/24 13:24:04*;
MES=2.26; ; ; ; V/m; 3.54V; $GNRMC,162409.000,A,1622.5675,S,03935.2043,W,0.01,27.18,120324,,,A*43;;-11.00;-2.00;-1.00;27.46;64.24 -->12/03/24 13:24:05*;
MES=2.26; ; ; ; V/m; 3.54V; $GNRMC,162410.000,A,1622.5675,S,03935.2043,W,0.01,27.18,120324,,,A*4B;;1.00;-1.00;1.00;27.46;64.24 -->12/03/24 13:24:05*;
MES=2.40; ; ; ; V/m; 3.54V; $GNRMC,162410.000,A,1622.5675,S,03935.2043,W,0.01,27.18,120324,,,A*4B;;1.00;2.00;1.00;27.46;64.24 -->12/03/24 13:24:05*;
MES=2.52; ; ; ; V/m; 3.54V; $GNRMC,162410.000,A,1622.5675,S,03935.2043,W,0.01,27.18,120324,,,A*4B;;6.00;-3.00;-3.00;27.46;64.24 -->12/03/24 13:24:05*;
MES=2.51; ; ; ; V/m; 3.54V; $GNRMC,162410.000,A,1622.5675,S,03935.2043,W,0.01,27.18,120324,,,A*4B;;-11.00;0.00;1.00;27.46;64.24 -->12/03/24 13:24:06*;
MES=2.51; ; ; ; V/m; 3.54V; $GNRMC,162411.000,A,1622.5675,S,03935.2043,W,0.00,27.18,120324,,,A*4B;;10.00;3.00;0.00;27.46;64.24 -->12/03/24 13:24:06*;
MES=2.51; ; ; ; V/m; 3.54V; $GNRMC,162411.000,A,1622.5675,S,03935.2043,W,0.00,27.18,120324,,,A*4B;;-1.00;-2.00;-1.00;27.46;64.24 -->12/03/24 13:24:06*;
MES=2.35; ; ; ; V/m; 3.54V; $GNRMC,162411.000,A,1622.5675,S,03935.2043,W,0.00,27.18,120324,,,A*4B;;-8.00;1.00;2.00;27.46;64.24 -->12/03/24 13:24:07*;
MES=2.04; ; ; ; V/m; 3.54V; $GNRMC,162411.000,A,1622.5675,S,03935.2043,W,0.00,27.18,120324,,,A*4B;;6.00;2.00;0.00;27.46;64.24 -->12/03/24 13:24:07*;
MES=2.04; ; ; ; V/m; 3.54V; $GNRMC,162412.000,A,1622.5675,S,03935.2043,W,0.00,27.18,120324,,,A*48;;-4.00;-4.00;0.00;27.46;64.24 -->12/03/24 13:24:07*;
MES=2.06; ; ; ; V/m; 3.54V; $GNRMC,162412.000,A,1622.5675,S,03935.2043,W,0.00,27.18,120324,,,A*48;;-3.00;3.00;-4.00;27.46;64.24 -->12/03/24 13:24:07*;
MES=2.06; ; ; ; V/m; 3.54V; $GNRMC,162412.000,A,1622.5675,S,03935.2043,W,0.00,27.18,120324,,,A*48;;10.00;2.00;-1.00;27.46;64.24 -->12/03/24 13:24:08*;
MES=2.06; ; ; ; V/m; 3.54V; $GNRMC,162413.000,A,1622.5675,S,03935.2043,W,0.01,27.18,120324,,,A*48;;-12.00;-4.00;6.00;27.46;64.24 -->12/03/24 13:24:08*;
MES=2.20; ; ; ; V/m; 3.54V; $GNRMC,162413.000,A,1622.5675,S,03935.2043,W,0.01,27.18,120324,,,A*48;;7.00;0.00;-2.00;27.46;64.24 -->12/03/24 13:24:08*;
MES=2.20; ; ; ; V/m; 3.54V; $GNRMC,162413.000,A,1622.5675,S,03935.2043,W,0.01,27.18,120324,,,A*48;;0.00;5.00;2.00;27.46;64.24 -->12/03/24 13:24:08*;
MES=2.14; ; ; ; V/m; 3.54V; $GNRMC,162413.000,A,1622.5675,S,03935.2043,W,0.01,27.18,120324,,,A*48;;4.00;-6.00;1.00;27.46;64.24 -->12/03/24 13:24:09*;
MES=2.14; ; ; ; V/m; 3.54V; $GNRMC,162414.000,A,1622.5675,S,03935.2043,W,0.01,27.18,120324,,,A*4F;;-11.00;4.00;-5.00;27.46;64.24 -->12/03/24 13:24:09*;
MES=2.19; ; ; ; V/m; 3.54V; $GNRMC,162414.000,A,1622.5675,S,03935.2043,W,0.01,27.18,120324,,,A*4F;;11.00;-3.00;1.00;27.46;64.24 -->12/03/24 13:24:09*;
MES=2.41; ; ; ; V/m; 3.54V; $GNRMC,162414.000,A,1622.5675,S,03935.2043,W,0.01,27.18,120324,,,A*4F;;-5.00;3.00;3.00;27.46;64.24 -->12/03/24 13:24:10*;
MES=2.47; ; ; ; V/m; 3.54V; $GNRMC,162414.000,A,1622.5675,S,03935.2043,W,0.01,27.18,120324,,,A*4F;;-2.00;-1.00;-5.00;27.46;64.24 -->12/03/24 13:24:10*;
MES=2.43; ; ; ; V/m; 3.54V; $GNRMC,162415.000,A,1622.5675,S,03935.2043,W,0.00,27.18,120324,,,A*4F;;3.00;2.00;6.00;27.46;64.24 -->12/03/24 13:24:10*;
MES=2.37; ; ; ; V/m; 3.54V; $GNRMC,162415.000,A,1622.5675,S,03935.2043,W,0.00,27.18,120324,,,A*4F;;6.00;-1.00;2.00;27.46;64.24 -->12/03/24 13:24:10*;
MES=2.37; ; ; ; V/m; 3.54V; $GNRMC,162415.000,A,1622.5675,S,03935.2043,W,0.00,27.18,120324,,,A*4F;;-10.00;2.00;-5.00;27.46;64.24 -->12/03/24 13:24:11*;
MES=2.37; ; ; ; V/m; 3.54V; $GNRMC,162416.000,A,1622.5675,S,03935.2043,W,0.02,27.18,120324,,,A*4E;;11.00;-3.00;1.00;27.46;64.24 -->12/03/24 13:24:11*;
MES=2.50; ; ; ; V/m; 3.54V; $GNRMC,162416.000,A,1622.5675,S,03935.2043,W,0.02,27.18,120324,,,A*4E;;-4.00;-1.00;3.00;27.46;64.24 -->12/03/24 13:24:11*;
MES=2.49; ; ; ; V/m; 3.54V; $GNRMC,162416.000,A,1622.5675,S,03935.2043,W,0.02,27.18,120324,,,A*4E;;-4.00;3.00;-4.00;27.46;64.24 -->12/03/24 13:24:11*;
MES=2.45; ; ; ; V/m; 3.54V; $GNRMC,162416.000,A,1622.5675,S,03935.2043,W,0.02,27.18,120324,,,A*4E;;2.00;-2.00;2.00;27.46;64.24 -->12/03/24 13:24:12*;
MES=2.44; ; ; ; V/m; 3.54V; $GNRMC,162417.000,A,1622.5675,S,03935.2043,W,0.01,27.18,120324,,,A*4C;;2.00;0.00;3.00;27.46;64.24 -->12/03/24 13:24:12*;
MES=2.44; ; ; ; V/m; 3.54V; $GNRMC,162417.000,A,1622.5675,S,03935.2043,W,0.01,27.18,120324,,,A*4C;;-1.00;1.00;-7.00;27.46;64.24 -->12/03/24 13:24:12*;
MES=2.48; ; ; ; V/m; 3.54V; $GNRMC,162417.000,A,1622.5675,S,03935.2043,W,0.01,27.18,120324,,,A*4C;;4.00;0.00;4.00;27.46;64.24 -->12/03/24 13:24:12*;
MES=2.53; ; ; ; V/m; 3.54V; $GNRMC,162417.000,A,1622.5675,S,03935.2043,W,0.01,27.18,120324,,,A*4C;;-4.00;-1.00;-1.00;27.46;64.24 -->12/03/24 13:24:13*;
MES=2.49; ; ; ; V/m; 3.54V; $GNRMC,162418.000,A,1622.5675,S,03935.2043,W,0.01,27.18,120324,,,A*43;;-3.00;3.00;1.00;27.46;64.24 -->12/03/24 13:24:13*;
MES=2.39; ; ; ; V/m; 3.54V; $GNRMC,162418.000,A,1622.5675,S,03935.2043,W,0.01,27.18,120324,,,A*43;;5.00;-5.00;-2.00;27.46;64.24 -->12/03/24 13:24:13*;
MES=2.39; ; ; ; V/m; 3.54V; $GNRMC,162418.000,A,1622.5675,S,03935.2043,W,0.01,27.18,120324,,,A*43;;-5.00;5.00;2.00;27.46;64.24 -->12/03/24 13:24:14*;
MES=2.46; ; ; ; V/m; 3.54V; $GNRMC,162419.000,A,1622.5675,S,03935.2043,W,0.00,27.18,120324,,,A*43;;-2.00;-4.00;2.00;27.46;64.24 -->12/03/24 13:24:14*;
MES=2.52; ; ; ; V/m; 3.54V; $GNRMC,162419.000,A,1622.5675,S,03935.2043,W,0.00,27.18,120324,,,A*43;;11.00;3.00;-11.00;27.46;64.24 -->12/03/24 13:24:14*;
MES=2.57; ; ; ; V/m; 3.54V; $GNRMC,162419.000,A,1622.5675,S,03935.2043,W,0.00,27.18,120324,,,A*43;;-12.00;-4.00;14.00;27.46;64.24 -->12/03/24 13:24:14*;
MES=2.55; ; ; ; V/m; 3.54V; $GNRMC,162419.000,A,1622.5675,S,03935.2043,W,0.00,27.18,120324,,,A*43;;1.00;8.00;-11.00;27.46;64.24 -->12/03/24 13:24:15*;
MES=2.52; ; ; ; V/m; 3.54V; $GNRMC,162420.000,A,1622.5675,S,03935.2043,W,0.00,27.18,120324,,,A*49;;3.00;-10.00;5.00;27.46;64.24 -->12/03/24 13:24:15*;
MES=2.46; ; ; ; V/m; 3.54V; $GNRMC,162420.000,A,1622.5675,S,03935.2043,W,0.00,27.18,120324,,,A*49;;7.00;4.00;0.00;27.46;64.24 -->12/03/24 13:24:15*;
MES=2.43; ; ; ; V/m; 3.54V; $GNRMC,162420.000,A,1622.5675,S,03935.2043,W,0.00,27.18,120324,,,A*49;;-14.00;1.00;1.00;27.46;64.24 -->12/03/24 13:24:15*;
MES=2.43; ; ; ; V/m; 3.54V; $GNRMC,162420.000,A,1622.5675,S,03935.2043,W,0.00,27.18,120324,,,A*49;;11.00;-3.00;-3.00;27.46;64.24 -->12/03/24 13:24:16*;
MES=2.49; ; ; ; V/m; 3.54V; $GNRMC,162421.000,A,1622.5675,S,03935.2043,W,0.00,27.18,120324,,,A*48;;-2.00;3.00;6.00;27.46;64.24 -->12/03/24 13:24:16*;
MES=2.49; ; ; ; V/m; 3.54V; $GNRMC,162421.000,A,1622.5675,S,03935.2043,W,0.00,27.18,120324,,,A*48;;-5.00;1.00;-5.00;27.46;64.24 -->12/03/24 13:24:16*;
MES=2.53; ; ; ; V/m; 3.54V; $GNRMC,162421.000,A,1622.5675,S,03935.2043,W,0.00,27.18,120324,,,A*48;;6.00;-1.00;-2.00;27.46;64.24 -->12/03/24 13:24:17*;
MES=2.32; ; ; ; V/m; 3.54V; $GNRMC,162421.000,A,1622.5675,S,03935.2043,W,0.00,27.18,120324,,,A*48;;-5.00;-1.00;2.00;27.46;64.24 -->12/03/24 13:24:17*;
MES=2.32; ; ; ; V/m; 3.54V; $GNRMC,162422.000,A,1622.5675,S,03935.2043,W,0.01,27.18,120324,,,A*4A;;1.00;1.00;0.00;27.46;64.24 -->12/03/24 13:24:17*;
MES=2.35; ; ; ; V/m; 3.54V; $GNRMC,162422.000,A,1622.5675,S,03935.2043,W,0.01,27.18,120324,,,A*4A;;6.00;-1.00;3.00;27.46;64.24 -->12/03/24 13:24:17*;
MES=2.30; ; ; ; V/m; 3.54V; $GNRMC,162422.000,A,1622.5675,S,03935.2043,W,0.01,27.18,120324,,,A*4A;;-2.00;0.00;-3.00;27.46;64.24 -->12/03/24 13:24:18*;
MES=2.30; ; ; ; V/m; 3.54V; $GNRMC,162423.000,A,1622.5675,S,03935.2043,W,0.01,27.18,120324,,,A*4B;;-7.00;-1.00;-2.00;27.46;64.24 -->12/03/24 13:24:18*;
MES=2.41; ; ; ; V/m; 3.54V; $GNRMC,162423.000,A,1622.5675,S,03935.2043,W,0.01,27.18,120324,,,A*4B;;10.00;1.00;0.00;27.46;64.24 -->12/03/24 13:24:18*;
MES=2.36; ; ; ; V/m; 3.54V; $GNRMC,162423.000,A,1622.5675,S,03935.2043,W,0.01,27.18,120324,,,A*4B;;-5.00;-2.00;3.00;27.46;64.24 -->12/03/24 13:24:18*;
MES=2.36; ; ; ; V/m; 3.54V; $GNRMC,162423.000,A,1622.5675,S,03935.2043,W,0.01,27.18,120324,,,A*4B;;-9.00;0.00;0.00;27.46;64.24 -->12/03/24 13:24:19*;
MES=2.50; ; ; ; V/m; 3.54V; $GNRMC,162424.000,A,1622.5675,S,03935.2043,W,0.02,27.18,120324,,,A*4F;;14.00;6.00;0.00;27.46;64.24 -->12/03/24 13:24:19*;
MES=2.52; ; ; ; V/m; 3.54V; $GNRMC,162424.000,A,1622.5675,S,03935.2043,W,0.02,27.18,120324,,,A*4F;;-7.00;-8.00;-5.00;27.46;64.24 -->12/03/24 13:24:19*;
MES=2.54; ; ; ; V/m; 3.54V; $GNRMC,162424.000,A,1622.5675,S,03935.2043,W,0.02,27.18,120324,,,A*4F;;1.00;2.00;4.00;27.46;64.24 -->12/03/24 13:24:20*;
MES=2.56; ; ; ; V/m; 3.54V; $GNRMC,162424.000,A,1622.5675,S,03935.2043,W,0.02,27.18,120324,,,A*4F;;7.00;3.00;2.00;27.46;64.24 -->12/03/24 13:24:20*;
MES=2.42; ; ; ; V/m; 3.54V; $GNRMC,162425.000,A,1622.5675,S,03935.2043,W,0.01,27.18,120324,,,A*4D;;-6.00;-1.00;-3.00;27.46;64.24 -->12/03/24 13:24:20*;
MES=2.42; ; ; ; V/m; 3.54V; $GNRMC,162425.000,A,1622.5675,S,03935.2043,W,0.01,27.18,120324,,,A*4D;;0.00;1.00;1.00;27.46;64.24 -->12/03/24 13:24:20*;
MES=2.44; ; ; ; V/m; 3.54V; $GNRMC,162425.000,A,1622.5675,S,03935.2043,W,0.01,27.18,120324,,,A*4D;;4.00;-1.00;2.00;27.46;64.24 -->12/03/24 13:24:21*;
MES=2.51; ; ; ; V/m; 3.54V; $GNRMC,162426.000,A,1622.5675,S,03935.2043,W,0.01,27.18,120324,,,A*4E;;-12.00;1.00;0.00;27.46;64.24 -->12/03/24 13:24:21*;
MES=2.51; ; ; ; V/m; 3.54V; $GNRMC,162426.000,A,1622.5675,S,03935.2043,W,0.01,27.18,120324,,,A*4E;;9.00;-2.00;-1.00;27.46;64.24 -->12/03/24 13:24:21*;
MES=2.51; ; ; ; V/m; 3.54V; $GNRMC,162426.000,A,1622.5675,S,03935.2043,W,0.01,27.18,120324,,,A*4E;;3.00;1.00;1.00;27.46;64.24 -->12/03/24 13:24:21*;
MES=2.46; ; ; ; V/m; 3.54V; $GNRMC,162426.000,A,1622.5675,S,03935.2043,W,0.01,27.18,120324,,,A*4E;;-7.00;-1.00;1.00;27.46;64.24 -->12/03/24 13:24:22*;
MES=2.33; ; ; ; V/m; 3.54V; $GNRMC,162427.000,A,1622.5675,S,03935.2043,W,0.00,27.18,120324,,,A*4E;;1.00;3.00;-2.00;27.46;64.24 -->12/03/24 13:24:22*;
MES=2.33; ; ; ; V/m; 3.54V; $GNRMC,162427.000,A,1622.5675,S,03935.2043,W,0.00,27.18,120324,,,A*4E;;7.00;-1.00;3.00;27.46;64.24 -->12/03/24 13:24:22*;
MES=2.33; ; ; ; V/m; 3.54V; $GNRMC,162427.000,A,1622.5675,S,03935.2043,W,0.00,27.18,120324,,,A*4E;;-5.00;-1.00;-3.00;27.46;64.24 -->12/03/24 13:24:22*;
MES=2.37; ; ; ; V/m; 3.54V; $GNRMC,162427.000,A,1622.5675,S,03935.2043,W,0.00,27.18,120324,,,A*4E;;5.00;-2.00;-2.00;27.46;64.24 -->12/03/24 13:24:23*;
MES=2.34; ; ; ; V/m; 3.54V; $GNRMC,162428.000,A,1622.5675,S,03935.2043,W,0.01,27.18,120324,,,A*40;;1.00;3.00;3.00;27.46;64.24 -->12/03/24 13:24:23*;
MES=2.34; ; ; ; V/m; 3.54V; $GNRMC,162428.000,A,1622.5675,S,03935.2043,W,0.01,27.18,120324,,,A*40;;-8.00;-4.00;3.00;27.46;64.24 -->12/03/24 13:24:23*;
MES=2.31; ; ; ; V/m; 3.54V; $GNRMC,162428.000,A,1622.5675,S,03935.2043,W,0.01,27.18,120324,,,A*40;;-2.00;2.00;-7.00;27.46;64.24 -->12/03/24 13:24:24*;
MES=2.31; ; ; ; V/m; 3.54V; $GNRMC,162429.000,A,1622.5675,S,03935.2043,W,0.01,27.18,120324,,,A*41;;12.00;-1.00;2.00;27.46;64.24 -->12/03/24 13:24:24*;
MES=2.44; ; ; ; V/m; 3.54V; $GNRMC,162429.000,A,1622.5675,S,03935.2043,W,0.01,27.18,120324,,,A*41;;-13.00;4.00;1.00;27.46;64.24 -->12/03/24 13:24:24*;
MES=2.44; ; ; ; V/m; 3.54V; $GNRMC,162429.000,A,1622.5675,S,03935.2043,W,0.01,27.18,120324,,,A*41;;8.00;-4.00;-3.00;27.46;64.24 -->12/03/24 13:24:24*;
MES=2.60; ; ; ; V/m; 3.54V; $GNRMC,162429.000,A,1622.5675,S,03935.2043,W,0.01,27.18,120324,,,A*41;;-7.00;2.00;4.00;27.46;64.24 -->12/03/24 13:24:25*;
MES=2.60; ; ; ; V/m; 3.54V; $GNRMC,162430.000,A,1622.5675,S,03935.2043,W,0.01,27.18,120324,,,A*49;;-3.00;1.00;-3.00;27.46;64.24 -->12/03/24 13:24:25*;
MES=2.53; ; ; ; V/m; 3.54V; $GNRMC,162430.000,A,1622.5675,S,03935.2043,W,0.01,27.18,120324,,,A*49;;8.00;0.00;-3.00;27.46;64.24 -->12/03/24 13:24:25*;
MES=2.38; ; ; ; V/m; 3.54V; $GNRMC,162430.000,A,1622.5675,S,03935.2043,W,0.01,27.18,120324,,,A*49;;-7.00;-3.00;7.00;27.46;64.24 -->12/03/24 13:24:25*;
MES=2.38; ; ; ; V/m; 3.54V; $GNRMC,162430.000,A,1622.5675,S,03935.2043,W,0.01,27.18,120324,,,A*49;;4.00;0.00;0.00;27.46;64.24 -->12/03/24 13:24:26*;
MES=2.36; ; ; ; V/m; 3.54V; $GNRMC,162431.000,A,1622.5675,S,03935.2043,W,0.01,27.18,120324,,,A*48;;7.00;2.00;0.00;27.46;64.24 -->12/03/24 13:24:26*;
MES=2.36; ; ; ; V/m; 3.54V; $GNRMC,162431.000,A,1622.5675,S,03935.2043,W,0.01,27.18,120324,,,A*48;;-6.00;-3.00;-1.00;27.46;64.24 -->12/03/24 13:24:26*;
MES=2.52; ; ; ; V/m; 3.54V; $GNRMC,162431.000,A,1622.5675,S,03935.2043,W,0.01,27.18,120324,,,A*48;;-3.00;3.00;-2.00;27.46;64.24 -->12/03/24 13:24:27*;
MES=2.64; ; ; ; V/m; 3.54V; $GNRMC,162431.000,A,1622.5675,S,03935.2043,W,0.01,27.18,120324,,,A*48;;6.00;1.00;-1.00;27.46;64.24 -->12/03/24 13:24:27*;
MES=2.61; ; ; ; V/m; 3.54V; $GNRMC,162432.000,A,1622.5675,S,03935.2043,W,0.01,27.18,120324,,,A*4B;;-9.00;-4.00;2.00;27.46;64.24 -->12/03/24 13:24:27*;
MES=2.61; ; ; ; V/m; 3.54V; $GNRMC,162432.000,A,1622.5675,S,03935.2043,W,0.01,27.18,120324,,,A*4B;;0.00;5.00;-3.00;27.46;64.24 -->12/03/24 13:24:27*;
MES=2.70; ; ; ; V/m; 3.54V; $GNRMC,162432.000,A,1622.5675,S,03935.2043,W,0.01,27.18,120324,,,A*4B;;13.00;-3.00;1.00;27.46;64.24 -->12/03/24 13:24:28*;
MES=2.47; ; ; ; V/m; 3.54V; $GNRMC,162433.000,A,1622.5675,S,03935.2043,W,0.02,27.18,120324,,,A*49;;-15.00;-1.00;2.00;27.46;64.24 -->12/03/24 13:24:28*;
MES=2.47; ; ; ; V/m; 3.54V; $GNRMC,162433.000,A,1622.5675,S,03935.2043,W,0.02,27.18,120324,,,A*49;;4.00;3.00;-3.00;27.46;64.24 -->12/03/24 13:24:28*;
MES=2.51; ; ; ; V/m; 3.54V; $GNRMC,162433.000,A,1622.5675,S,03935.2043,W,0.02,27.18,120324,,,A*49;;10.00;2.00;4.00;27.46;64.24 -->12/03/24 13:24:28*;
MES=2.45; ; ; ; V/m; 3.54V; $GNRMC,162433.000,A,1622.5675,S,03935.2043,W,0.02,27.18,120324,,,A*49;;-10.00;-6.00;-2.00;27.46;64.24 -->12/03/24 13:24:29*;
MES=2.41; ; ; ; V/m; 3.54V; $GNRMC,162434.000,A,1622.5675,S,03935.2043,W,0.02,27.18,120324,,,A*4E;;0.00;5.00;0.00;27.46;64.24 -->12/03/24 13:24:29*;
MES=2.41; ; ; ; V/m; 3.54V; $GNRMC,162434.000,A,1622.5675,S,03935.2043,W,0.02,27.18,120324,,,A*4E;;6.00;0.00;-1.00;27.46;64.24 -->12/03/24 13:24:29*;
MES=2.44; ; ; ; V/m; 3.54V; $GNRMC,162434.000,A,1622.5675,S,03935.2043,W,0.02,27.18,120324,,,A*4E;;-1.00;-1.00;6.00;27.46;64.24 -->12/03/24 13:24:29*;
MES=2.44; ; ; ; V/m; 3.54V; $GNRMC,162434.000,A,1622.5675,S,03935.2043,W,0.02,27.18,120324,,,A*4E;;-8.00;-1.00;-5.00;27.46;64.24 -->12/03/24 13:24:30*;
MES=2.49; ; ; ; V/m; 3.54V; $GNRMC,162435.000,A,1622.5675,S,03935.2043,W,0.00,27.18,120324,,,A*4D;;6.00;2.00;0.00;27.46;64.24 -->12/03/24 13:24:30*;
