#BM MDM=OK*
#BM MES=0.00; ; V/m*
#BM IDN=490ZY30425;Nsts,AMB-8059-00; 2.29 11/22;490ZY30425;07.06.23;NET 15:05 ( 1q)  each 01h;OFF 16:00 ( 2q)  each 24h;------------;*
#BM MDM=OK*
#BM SWI=OK*
#BM MDM=0*
#BM PRB=EP-1B-08:07.06.23; V/m:100.00:200.00:0.18:S*
#BM PRB=EP-1B-08:07.06.23; V/m:100.00:200.00:0.18:S*
#BM EEM=OK*
Erasing Mobile Flash
#BM ERM=OK   42*
#BM *;
MES=0.00; ; ; ; V/m; 3.58V; ;554.00;13.00;100.00;24.84;57.98 -->13/03/24 15:41:50*;
MES=0.00; ; ; ; V/m; 3.58V; ;57.00;-28.00;40.00;24.84;57.98 -->13/03/24 15:41:50*;
MES=0.00; ; ; ; V/m; 3.58V; ;-62.00;10.00;4.00;24.84;57.98 -->13/03/24 15:41:50*;
MES=1.23; ; ; ; V/m; 3.58V; ;10.00;18.00;-24.00;24.84;57.98 -->13/03/24 15:41:50*;
MES=1.17; ; ; ; V/m; 3.58V; ;2.00;-21.00;21.00;24.84;57.98 -->13/03/24 15:41:51*;
MES=1.10; ; ; ; V/m; 3.58V; ;3.00;61.00;-40.00;24.84;57.98 -->13/03/24 15:41:51*;
MES=1.00; ; ; ; V/m; 3.58V; ;-26.00;-5.00;22.00;24.84;57.98 -->13/03/24 15:41:51*;
MES=0.98; ; ; ; V/m; 3.58V; $GNRMC,184157.949,V,,,,,0.08,0.00,130324,,,N*56;;21.00;-5.00;-4.00;24.84;57.98 -->13/03/24 15:41:51*;
MES=0.96; ; ; ; V/m; 3.58V; $GNRMC,184157.949,V,,,,,0.08,0.00,130324,,,N*56;;-6.00;23.00;-22.00;24.84;57.98 -->13/03/24 15:41:52*;
MES=0.88; ; ; ; V/m; 3.58V; $GNRMC,184157.949,V,,,,,0.08,0.00,130324,,,N*56;;-9.00;32.00;23.00;24.84;57.98 -->13/03/24 15:41:52*;
MES=0.88; ; ; ; V/m; 3.58V; $GNRMC,184158.949,V,,,,,0.45,0.00,130324,,,N*50;;-1.00;-25.00;-65.00;24.84;57.98 -->13/03/24 15:41:52*;
MES=0.91; ; ; ; V/m; 3.58V; $GNRMC,184158.949,V,,,,,0.45,0.00,130324,,,N*50;;-21.00;-17.00;60.00;24.84;57.98 -->13/03/24 15:41:52*;
MES=0.91; ; ; ; V/m; 3.58V; $GNRMC,184158.949,V,,,,,0.45,0.00,130324,,,N*50;;-26.00;-137.00;-52.00;24.84;57.98 -->13/03/24 15:41:53*;
MES=0.88; ; ; ; V/m; 3.58V; $GNRMC,184158.949,V,,,,,0.45,0.00,130324,,,N*50;;56.00;132.00;25.00;24.84;57.98 -->13/03/24 15:41:53*;
MES=0.85; ; ; ; V/m; 3.58V; $GNRMC,184159.949,V,,,,,0.36,0.00,130324,,,N*55;;-14.00;-129.00;-60.00;24.84;57.98 -->13/03/24 15:41:53*;
MES=0.77; ; ; ; V/m; 3.58V; $GNRMC,184159.949,V,,,,,0.36,0.00,130324,,,N*55;;-84.00;19.00;79.00;24.84;57.98 -->13/03/24 15:41:54*;
MES=0.77; ; ; ; V/m; 3.58V; $GNRMC,184159.949,V,,,,,0.36,0.00,130324,,,N*55;;117.00;312.00;92.00;24.84;57.98 -->13/03/24 15:41:54*;
MES=0.82; ; ; ; V/m; 3.58V; $GNRMC,184159.949,V,,,,,0.36,0.00,130324,,,N*55;;-17.00;-287.00;-76.00;24.84;57.98 -->13/03/24 15:41:54*;
MES=0.85; ; ; ; V/m; 3.58V; $GNRMC,184200.949,V,,,,,0.23,0.00,130324,,,N*5E;;-14.00;-19.00;-66.00;24.84;57.98 -->13/03/24 15:41:54*;
MES=0.85; ; ; ; V/m; 3.58V; $GNRMC,184200.949,V,,,,,0.23,0.00,130324,,,N*5E;;6.00;133.00;32.00;24.84;57.98 -->13/03/24 15:41:55*;
MES=0.81; ; ; ; V/m; 3.58V; $GNRMC,184200.949,V,,,,,0.23,0.00,130324,,,N*5E;;16.00;22.00;-70.00;24.84;57.98 -->13/03/24 15:41:55*;
MES=0.72; ; ; ; V/m; 3.58V; $GNRMC,184200.949,V,,,,,0.23,0.00,130324,,,N*5E;;-47.00;39.00;45.00;24.84;57.98 -->13/03/24 15:41:55*;
MES=0.72; ; ; ; V/m; 3.58V; $GNRMC,184202.020,A,1447.4236,S,03902.4084,W,0.12,0.00,130324,,,A*71;;68.00;-82.00;-93.00;24.84;57.98 -->13/03/24 15:41:55*;
MES=0.76; ; ; ; V/m; 3.58V; $GNRMC,184202.020,A,1447.4236,S,03902.4084,W,0.12,0.00,130324,,,A*71;;-57.00;-6.00;103.00;24.84;57.98 -->13/03/24 15:41:56*;
MES=0.76; ; ; ; V/m; 3.58V; $GNRMC,184202.020,A,1447.4236,S,03902.4084,W,0.12,0.00,130324,,,A*71;;11.00;63.00;-41.00;24.84;57.98 -->13/03/24 15:41:56*;
MES=0.75; ; ; ; V/m; 3.58V; $GNRMC,184202.020,A,1447.4236,S,03902.4084,W,0.12,0.00,130324,,,A*71;;27.00;-28.00;-6.00;24.84;57.98 -->13/03/24 15:41:56*;
MES=0.68; ; ; ; V/m; 3.58V; $GNRMC,184203.026,A,1447.4227,S,03902.4048,W,0.81,230.54,130324,,,A*7C;;-107.00;52.00;28.00;24.84;57.98 -->13/03/24 15:41:56*;
MES=0.67; ; ; ; V/m; 3.58V; $GNRMC,184203.026,A,1447.4227,S,03902.4048,W,0.81,230.54,130324,,,A*7C;;164.00;161.00;96.00;24.84;57.98 -->13/03/24 15:41:57*;
MES=0.67; ; ; ; V/m; 3.58V; $GNRMC,184203.026,A,1447.4227,S,03902.4048,W,0.81,230.54,130324,,,A*7C;;-153.00;-161.00;-109.00;24.84;57.98 -->13/03/24 15:41:57*;
MES=0.58; ; ; ; V/m; 3.58V; $GNRMC,184204.044,A,1447.4241,S,03902.4004,W,1.23,273.35,130324,,,A*7E;;41.00;-9.00;10.00;24.84;57.98 -->13/03/24 15:41:57*;
MES=0.58; ; ; ; V/m; 3.58V; $GNRMC,184204.044,A,1447.4241,S,03902.4004,W,1.23,273.35,130324,,,A*7E;;70.00;-58.00;8.00;24.84;57.98 -->13/03/24 15:41:58*;
MES=0.66; ; ; ; V/m; 3.58V; $GNRMC,184204.044,A,1447.4241,S,03902.4004,W,1.23,273.35,130324,,,A*7E;;-60.00;-52.00;-65.00;24.84;57.98 -->13/03/24 15:41:58*;
MES=0.71; ; ; ; V/m; 3.58V; $GNRMC,184204.044,A,1447.4241,S,03902.4004,W,1.23,273.35,130324,,,A*7E;;-4.00;-11.00;38.00;24.84;57.98 -->13/03/24 15:41:58*;
MES=0.69; ; ; ; V/m; 3.58V; $GNRMC,184204.044,A,1447.4241,S,03902.4004,W,1.23,273.35,130324,,,A*7E;;35.00;89.00;11.00;24.84;57.98 -->13/03/24 15:41:58*;
MES=0.69; ; ; ; V/m; 3.58V; $GNRMC,184204.044,A,1447.4241,S,03902.4004,W,1.23,273.35,130324,,,A*7E;;31.00;-21.00;-42.00;24.84;57.98 -->13/03/24 15:41:59*;
MES=0.75; ; ; ; V/m; 3.58V; $GNRMC,184204.044,A,1447.4241,S,03902.4004,W,1.23,273.35,130324,,,A*7E;;-18.00;-12.00;63.00;24.84;57.98 -->13/03/24 15:41:59*;
MES=0.84; ; ; ; V/m; 3.58V; $GNRMC,184204.044,A,1447.4241,S,03902.4004,W,1.23,273.35,130324,,,A*7E;;19.00;17.00;-61.00;24.84;57.98 -->13/03/24 15:41:59*;
MES=0.82; ; ; ; V/m; 3.58V; $GNRMC,184206.000,A,1447.4251,S,03902.4041,W,2.09,278.24,130324,,,A*7C;;1.00;-202.00;-15.00;24.84;57.98 -->13/03/24 15:41:59*;
MES=0.82; ; ; ; V/m; 3.58V; $GNRMC,184206.000,A,1447.4251,S,03902.4041,W,2.09,278.24,130324,,,A*7C;;28.00;233.00;-31.00;24.84;57.98 -->13/03/24 15:42:00*;
MES=0.83; ; ; ; V/m; 3.58V; $GNRMC,184206.000,A,1447.4251,S,03902.4041,W,2.09,278.24,130324,,,A*7C;;-150.00;57.00;206.00;25.02;59.70 -->13/03/24 15:42:00*;
MES=0.72; ; ; ; V/m; 3.58V; $GNRMC,184206.000,A,1447.4251,S,03902.4041,W,2.09,278.24,130324,,,A*7C;;122.00;-73.00;-101.00;25.02;59.70 -->13/03/24 15:42:00*;
MES=0.66; ; ; ; V/m; 3.58V; $GNRMC,184207.000,A,1447.4266,S,03902.4079,W,3.11,276.46,130324,,,A*70;;-91.00;32.00;-2.00;25.02;59.70 -->13/03/24 15:42:01*;
MES=0.56; ; ; ; V/m; 3.58V; $GNRMC,184207.000,A,1447.4266,S,03902.4079,W,3.11,276.46,130324,,,A*70;;5.00;-80.00;-4.00;25.02;59.70 -->13/03/24 15:42:01*;
MES=0.56; ; ; ; V/m; 3.58V; $GNRMC,184207.000,A,1447.4266,S,03902.4079,W,3.11,276.46,130324,,,A*70;;120.00;-106.00;-46.00;25.02;59.70 -->13/03/24 15:42:01*;
MES=0.62; ; ; ; V/m; 3.58V; $GNRMC,184208.000,A,1447.4259,S,03902.4133,W,4.57,275.43,130324,,,A*7F;;-31.00;29.00;32.00;25.02;59.70 -->13/03/24 15:42:01*;
MES=0.73; ; ; ; V/m; 3.58V; $GNRMC,184208.000,A,1447.4259,S,03902.4133,W,4.57,275.43,130324,,,A*7F;;-30.00;204.00;53.00;25.02;59.70 -->13/03/24 15:42:02*;
MES=0.63; ; ; ; V/m; 3.58V; $GNRMC,184208.000,A,1447.4259,S,03902.4133,W,4.57,275.43,130324,,,A*7F;;-83.00;-117.00;-13.00;25.02;59.70 -->13/03/24 15:42:02*;
MES=0.30; ; ; ; V/m; 3.58V; $GNRMC,184208.000,A,1447.4259,S,03902.4133,W,4.57,275.43,130324,,,A*7F;;113.00;-86.00;-58.00;25.02;59.70 -->13/03/24 15:42:02*;
MES=0.30; ; ; ; V/m; 3.58V; $GNRMC,184209.000,A,1447.4272,S,03902.4190,W,6.88,275.02,130324,,,A*7B;;-12.00;96.00;11.00;25.02;59.70 -->13/03/24 15:42:02*;
MES=0.39; ; ; ; V/m; 3.58V; $GNRMC,184209.000,A,1447.4272,S,03902.4190,W,6.88,275.02,130324,,,A*7B;;-54.00;-15.00;35.00;25.02;59.70 -->13/03/24 15:42:03*;
MES=0.12; ; ; ; V/m; 3.58V; $GNRMC,184209.000,A,1447.4272,S,03902.4190,W,6.88,275.02,130324,,,A*7B;;43.00;-40.00;-23.00;25.02;59.70 -->13/03/24 15:42:03*;
MES=0.00; ; ; ; V/m; 3.58V; $GNRMC,184209.000,A,1447.4272,S,03902.4190,W,6.88,275.02,130324,,,A*7B;;4.00;-27.00;31.00;25.02;59.70 -->13/03/24 15:42:03*;
MES=0.00; ; ; ; V/m; 3.58V; $GNRMC,184210.000,A,1447.4272,S,03902.4227,W,8.82,273.97,130324,,,A*72;;4.00;57.00;-6.00;25.02;59.70 -->13/03/24 15:42:04*;
MES=0.00; ; ; ; V/m; 3.58V; $GNRMC,184210.000,A,1447.4272,S,03902.4227,W,8.82,273.97,130324,,,A*72;;-47.00;-42.00;21.00;25.02;59.70 -->13/03/24 15:42:04*;
MES=0.39; ; ; ; V/m; 3.58V; $GNRMC,184210.000,A,1447.4272,S,03902.4227,W,8.82,273.97,130324,,,A*72;;28.00;11.00;-66.00;25.02;59.70 -->13/03/24 15:42:04*;
MES=0.30; ; ; ; V/m; 3.58V; $GNRMC,184211.000,A,1447.4271,S,03902.4272,W,10.87,273.82,130324,,,A*48;;-37.00;-6.00;-22.00;25.02;59.70 -->13/03/24 15:42:04*;
MES=0.26; ; ; ; V/m; 3.58V; $GNRMC,184211.000,A,1447.4271,S,03902.4272,W,10.87,273.82,130324,,,A*48;;-18.00;-105.00;-10.00;25.02;59.70 -->13/03/24 15:42:05*;
MES=0.26; ; ; ; V/m; 3.58V; $GNRMC,184211.000,A,1447.4271,S,03902.4272,W,10.87,273.82,130324,,,A*48;;136.00;176.00;46.00;25.02;59.70 -->13/03/24 15:42:05*;
MES=0.00; ; ; ; V/m; 3.58V; $GNRMC,184211.000,A,1447.4271,S,03902.4272,W,10.87,273.82,130324,,,A*48;;-111.00;-69.00;33.00;25.02;59.70 -->13/03/24 15:42:05*;
MES=0.00; ; ; ; V/m; 3.58V; $GNRMC,184212.000,A,1447.4277,S,03902.4326,W,12.96,269.09,130324,,,A*47;;-19.00;23.00;-77.00;25.02;59.70 -->13/03/24 15:42:05*;
MES=0.00; ; ; ; V/m; 3.58V; $GNRMC,184212.000,A,1447.4277,S,03902.4326,W,12.96,269.09,130324,,,A*47;;36.00;-8.00;36.00;25.02;59.70 -->13/03/24 15:42:06*;
MES=0.00; ; ; ; V/m; 3.58V; $GNRMC,184212.000,A,1447.4277,S,03902.4326,W,12.96,269.09,130324,,,A*47;;28.00;6.00;-16.00;25.02;59.70 -->13/03/24 15:42:06*;
MES=0.42; ; ; ; V/m; 3.58V; $GNRMC,184212.000,A,1447.4277,S,03902.4326,W,12.96,269.09,130324,,,A*47;;-69.00;-18.00;31.00;25.02;59.70 -->13/03/24 15:42:06*;
MES=0.41; ; ; ; V/m; 3.58V; $GNRMC,184213.000,A,1447.4272,S,03902.4390,W,14.83,270.35,130324,,,A*4B;;50.00;-10.00;-28.00;25.02;59.70 -->13/03/24 15:42:07*;
MES=0.41; ; ; ; V/m; 3.56V; $GNRMC,184213.000,A,1447.4272,S,03902.4390,W,14.83,270.35,130324,,,A*4B;;-3.00;30.00;-6.00;25.02;59.70 -->13/03/24 15:42:07*;
MES=0.50; ; ; ; V/m; 3.56V; $GNRMC,184213.000,A,1447.4272,S,03902.4390,W,14.83,270.35,130324,,,A*4B;;-2.00;5.00;70.00;25.02;59.70 -->13/03/24 15:42:07*;
MES=0.23; ; ; ; V/m; 3.56V; $GNRMC,184214.000,A,1447.4275,S,03902.4454,W,17.82,269.41,130324,,,A*4D;;27.00;21.00;-73.00;25.02;59.70 -->13/03/24 15:42:07*;
MES=0.00; ; ; ; V/m; 3.56V; $GNRMC,184214.000,A,1447.4275,S,03902.4454,W,17.82,269.41,130324,,,A*4D;;-7.00;-34.00;70.00;25.02;59.70 -->13/03/24 15:42:08*;
MES=0.00; ; ; ; V/m; 3.56V; $GNRMC,184214.000,A,1447.4275,S,03902.4454,W,17.82,269.41,130324,,,A*4D;;-21.00;-12.00;-77.00;25.02;59.70 -->13/03/24 15:42:08*;
MES=0.00; ; ; ; V/m; 3.56V; $GNRMC,184214.000,A,1447.4275,S,03902.4454,W,17.82,269.41,130324,,,A*4D;;18.00;21.00;79.00;25.02;59.70 -->13/03/24 15:42:08*;
MES=0.00; ; ; ; V/m; 3.56V; $GNRMC,184215.000,A,1447.4280,S,03902.4510,W,19.22,269.77,130324,,,A*46;;16.00;-14.00;-56.00;25.02;59.70 -->13/03/24 15:42:08*;
MES=0.00; ; ; ; V/m; 3.56V; $GNRMC,184215.000,A,1447.4280,S,03902.4510,W,19.22,269.77,130324,,,A*46;;-40.00;-17.00;8.00;25.02;59.70 -->13/03/24 15:42:09*;
MES=0.43; ; ; ; V/m; 3.56V; $GNRMC,184215.000,A,1447.4280,S,03902.4510,W,19.22,269.77,130324,,,A*46;;31.00;0.00;54.00;25.02;59.70 -->13/03/24 15:42:09*;
MES=0.44; ; ; ; V/m; 3.56V; $GNRMC,184215.000,A,1447.4280,S,03902.4510,W,19.22,269.77,130324,,,A*46;;39.00;72.00;33.00;25.02;59.70 -->13/03/24 15:42:09*;
MES=0.44; ; ; ; V/m; 3.56V; $GNRMC,184216.000,A,1447.4285,S,03902.4567,W,19.45,268.81,130324,,,A*49;;-80.00;-5.00;-88.00;25.02;59.70 -->13/03/24 15:42:10*;
MES=0.44; ; ; ; V/m; 3.56V; $GNRMC,184216.000,A,1447.4285,S,03902.4567,W,19.45,268.81,130324,,,A*49;;34.00;-92.00;65.00;25.02;59.70 -->13/03/24 15:42:10*;
MES=0.44; ; ; ; V/m; 3.56V; $GNRMC,184216.000,A,1447.4285,S,03902.4567,W,19.45,268.81,130324,,,A*49;;2.00;5.00;-78.00;25.02;59.70 -->13/03/24 15:42:10*;
MES=0.46; ; ; ; V/m; 3.56V; $GNRMC,184216.000,A,1447.4285,S,03902.4567,W,19.45,268.81,130324,,,A*49;;-15.00;-32.00;41.00;25.02;59.70 -->13/03/24 15:42:10*;
MES=0.47; ; ; ; V/m; 3.56V; $GNRMC,184217.000,A,1447.4290,S,03902.4626,W,19.31,266.41,130324,,,A*4B;;35.00;8.00;64.00;25.02;59.70 -->13/03/24 15:42:11*;
MES=0.50; ; ; ; V/m; 3.56V; $GNRMC,184217.000,A,1447.4290,S,03902.4626,W,19.31,266.41,130324,,,A*4B;;45.00;11.00;-124.00;25.02;59.70 -->13/03/24 15:42:11*;
MES=0.49; ; ; ; V/m; 3.56V; $GNRMC,184217.000,A,1447.4290,S,03902.4626,W,19.31,266.41,130324,,,A*4B;;-132.00;30.00;31.00;25.02;59.70 -->13/03/24 15:42:11*;
MES=0.40; ; ; ; V/m; 3.56V; $GNRMC,184218.000,A,1447.4293,S,03902.4683,W,18.74,268.28,130324,,,A*49;;66.00;80.00;32.00;25.02;59.70 -->13/03/24 15:42:11*;
MES=0.21; ; ; ; V/m; 3.56V; $GNRMC,184218.000,A,1447.4293,S,03902.4683,W,18.74,268.28,130324,,,A*49;;17.00;-38.00;-6.00;25.02;59.70 -->13/03/24 15:42:12*;
MES=0.00; ; ; ; V/m; 3.56V; $GNRMC,184218.000,A,1447.4293,S,03902.4683,W,18.74,268.28,130324,,,A*49;;-69.00;-94.00;77.00;25.02;59.70 -->13/03/24 15:42:12*;
MES=0.00; ; ; ; V/m; 3.56V; $GNRMC,184218.000,A,1447.4293,S,03902.4683,W,18.74,268.28,130324,,,A*49;;-14.00;180.00;-29.00;25.02;59.70 -->13/03/24 15:42:12*;
MES=0.00; ; ; ; V/m; 3.56V; $GNRMC,184219.000,A,1447.4292,S,03902.4738,W,18.64,270.66,130324,,,A*4A;;13.00;-82.00;-110.00;25.02;59.70 -->13/03/24 15:42:12*;
MES=0.55; ; ; ; V/m; 3.56V; $GNRMC,184219.000,A,1447.4292,S,03902.4738,W,18.64,270.66,130324,,,A*4A;;-34.00;-54.00;-9.00;25.02;59.70 -->13/03/24 15:42:13*;
MES=0.52; ; ; ; V/m; 3.56V; $GNRMC,184219.000,A,1447.4292,S,03902.4738,W,18.64,270.66,130324,,,A*4A;;-12.00;9.00;66.00;25.02;59.70 -->13/03/24 15:42:13*;
MES=0.52; ; ; ; V/m; 3.56V; $GNRMC,184219.000,A,1447.4292,S,03902.4738,W,18.64,270.66,130324,,,A*4A;;127.00;97.00;39.00;25.02;59.70 -->13/03/24 15:42:13*;
MES=0.69; ; ; ; V/m; 3.56V; $GNRMC,184220.000,A,1447.4291,S,03902.4791,W,17.78,269.53,130324,,,A*4C;;31.00;-62.00;15.00;25.02;59.70 -->13/03/24 15:42:14*;
MES=0.40; ; ; ; V/m; 3.56V; $GNRMC,184220.000,A,1447.4291,S,03902.4791,W,17.78,269.53,130324,,,A*4C;;-80.00;57.00;-49.00;25.02;59.70 -->13/03/24 15:42:14*;
MES=0.00; ; ; ; V/m; 3.56V; $GNRMC,184220.000,A,1447.4291,S,03902.4791,W,17.78,269.53,130324,,,A*4C;;33.00;26.00;31.00;25.02;59.70 -->13/03/24 15:42:14*;
MES=0.00; ; ; ; V/m; 3.56V; $GNRMC,184221.000,A,1447.4289,S,03902.4843,W,17.05,268.64,130324,,,A*4B;;-14.00;75.00;2.00;25.02;59.70 -->13/03/24 15:42:14*;
MES=0.00; ; ; ; V/m; 3.56V; $GNRMC,184221.000,A,1447.4289,S,03902.4843,W,17.05,268.64,130324,,,A*4B;;-63.00;-104.00;-129.00;25.02;59.70 -->13/03/24 15:42:15*;
MES=0.00; ; ; ; V/m; 3.56V; $GNRMC,184221.000,A,1447.4289,S,03902.4843,W,17.05,268.64,130324,,,A*4B;;-28.00;5.00;180.00;25.02;59.70 -->13/03/24 15:42:15*;
MES=0.00; ; ; ; V/m; 3.56V; $GNRMC,184221.000,A,1447.4289,S,03902.4843,W,17.05,268.64,130324,,,A*4B;;117.00;102.00;-228.00;25.02;59.70 -->13/03/24 15:42:15*;
MES=0.00; ; ; ; V/m; 3.56V; $GNRMC,184222.000,A,1447.4292,S,03902.4893,W,16.79,267.71,130324,,,A*4E;;-110.00;-111.00;197.00;25.02;59.70 -->13/03/24 15:42:15*;
MES=0.00; ; ; ; V/m; 3.56V; $GNRMC,184222.000,A,1447.4292,S,03902.4893,W,16.79,267.71,130324,,,A*4E;;102.00;71.00;43.00;25.02;59.70 -->13/03/24 15:42:16*;
MES=0.00; ; ; ; V/m; 3.56V; $GNRMC,184222.000,A,1447.4292,S,03902.4893,W,16.79,267.71,130324,,,A*4E;;-12.00;-30.00;-54.00;25.02;59.70 -->13/03/24 15:42:16*;
MES=0.00; ; ; ; V/m; 3.56V; $GNRMC,184222.000,A,1447.4292,S,03902.4893,W,16.79,267.71,130324,,,A*4E;;-70.00;-72.00;-111.00;25.02;59.70 -->13/03/24 15:42:16*;
MES=0.00; ; ; ; V/m; 3.56V; $GNRMC,184223.000,A,1447.4292,S,03902.4943,W,16.99,269.78,130324,,,A*4A;;85.00;-118.00;52.00;25.02;59.70 -->13/03/24 15:42:17*;
MES=0.58; ; ; ; V/m; 3.56V; $GNRMC,184223.000,A,1447.4292,S,03902.4943,W,16.99,269.78,130324,,,A*4A;;-47.00;-22.00;45.00;25.02;59.70 -->13/03/24 15:42:17*;
MES=0.51; ; ; ; V/m; 3.56V; $GNRMC,184223.000,A,1447.4292,S,03902.4943,W,16.99,269.78,130324,,,A*4A;;179.00;84.00;17.00;25.02;59.70 -->13/03/24 15:42:17*;
MES=0.46; ; ; ; V/m; 3.56V; $GNRMC,184224.000,A,1447.4289,S,03902.4993,W,16.70,271.72,130324,,,A*4E;;-173.00;5.00;-13.00;25.02;59.70 -->13/03/24 15:42:17*;
MES=0.43; ; ; ; V/m; 3.56V; $GNRMC,184224.000,A,1447.4289,S,03902.4993,W,16.70,271.72,130324,,,A*4E;;15.00;108.00;30.00;25.02;59.70 -->13/03/24 15:42:18*;
MES=0.12; ; ; ; V/m; 3.56V; $GNRMC,184224.000,A,1447.4289,S,03902.4993,W,16.70,271.72,130324,,,A*4E;;-19.00;-64.00;-60.00;25.02;59.70 -->13/03/24 15:42:18*;
MES=0.00; ; ; ; V/m; 3.56V; $GNRMC,184224.000,A,1447.4289,S,03902.4993,W,16.70,271.72,130324,,,A*4E;;-72.00;-77.00;-22.00;25.02;59.70 -->13/03/24 15:42:18*;
MES=0.00; ; ; ; V/m; 3.56V; $GNRMC,184225.000,A,1447.4287,S,03902.5041,W,15.52,272.85,130324,,,A*4E;;96.00;49.00;88.00;25.02;59.70 -->13/03/24 15:42:18*;
MES=0.00; ; ; ; V/m; 3.56V; $GNRMC,184225.000,A,1447.4287,S,03902.5041,W,15.52,272.85,130324,,,A*4E;;-11.00;-33.00;-158.00;25.02;59.70 -->13/03/24 15:42:19*;
MES=0.00; ; ; ; V/m; 3.56V; $GNRMC,184225.000,A,1447.4287,S,03902.5041,W,15.52,272.85,130324,,,A*4E;;-98.00;-79.00;182.00;25.02;59.70 -->13/03/24 15:42:19*;
MES=0.00; ; ; ; V/m; 3.56V; $GNRMC,184225.000,A,1447.4287,S,03902.5041,W,15.52,272.85,130324,,,A*4E;;131.00;207.00;-97.00;25.02;59.70 -->13/03/24 15:42:19*;
MES=0.00; ; ; ; V/m; 3.56V; $GNRMC,184226.000,A,1447.4284,S,03902.5084,W,14.30,274.88,130324,,,A*49;;46.00;-227.00;-36.00;25.02;59.70 -->13/03/24 15:42:20*;
MES=0.00; ; ; ; V/m; 3.56V; $GNRMC,184226.000,A,1447.4284,S,03902.5084,W,14.30,274.88,130324,,,A*49;;-75.00;265.00;-50.00;25.02;59.70 -->13/03/24 15:42:20*;
MES=0.00; ; ; ; V/m; 3.56V; $GNRMC,184226.000,A,1447.4284,S,03902.5084,W,14.30,274.88,130324,,,A*49;;92.00;-50.00;26.00;25.02;59.70 -->13/03/24 15:42:20*;
MES=0.00; ; ; ; V/m; 3.56V; $GNRMC,184226.000,A,1447.4284,S,03902.5084,W,14.30,274.88,130324,,,A*49;;-108.00;-107.00;18.00;25.02;59.70 -->13/03/24 15:42:20*;
MES=0.00; ; ; ; V/m; 3.56V; $GNRMC,184227.000,A,1447.4278,S,03902.5127,W,14.02,275.22,130324,,,A*43;;-47.00;36.00;-35.00;25.02;59.70 -->13/03/24 15:42:21*;
MES=0.00; ; ; ; V/m; 3.56V; $GNRMC,184227.000,A,1447.4278,S,03902.5127,W,14.02,275.22,130324,,,A*43;;48.00;-164.00;45.00;25.02;59.70 -->13/03/24 15:42:21*;
MES=0.57; ; ; ; V/m; 3.56V; $GNRMC,184227.000,A,1447.4278,S,03902.5127,W,14.02,275.22,130324,,,A*43;;91.00;299.00;51.00;25.02;59.70 -->13/03/24 15:42:21*;
MES=0.50; ; ; ; V/m; 3.56V; $GNRMC,184228.000,A,1447.4274,S,03902.5168,W,14.15,272.94,130324,,,A*47;;-207.00;-196.00;-94.00;25.02;59.70 -->13/03/24 15:42:21*;
MES=0.00; ; ; ; V/m; 3.56V; $GNRMC,184228.000,A,1447.4274,S,03902.5168,W,14.15,272.94,130324,,,A*47;;178.00;51.00;7.00;25.02;59.70 -->13/03/24 15:42:22*;
MES=0.00; ; ; ; V/m; 3.56V; $GNRMC,184228.000,A,1447.4274,S,03902.5168,W,14.15,272.94,130324,,,A*47;;-96.00;73.00;23.00;25.02;59.70 -->13/03/24 15:42:22*;
MES=0.00; ; ; ; V/m; 3.56V; $GNRMC,184228.000,A,1447.4274,S,03902.5168,W,14.15,272.94,130324,,,A*47;;4.00;-85.00;-26.00;25.02;59.70 -->13/03/24 15:42:22*;
MES=0.00; ; ; ; V/m; 3.56V; $GNRMC,184229.000,A,1447.4273,S,03902.5210,W,14.93,270.50,130324,,,A*49;;59.00;31.00;41.00;25.02;59.70 -->13/03/24 15:42:23*;
MES=0.00; ; ; ; V/m; 3.56V; $GNRMC,184229.000,A,1447.4273,S,03902.5210,W,14.93,270.50,130324,,,A*49;;9.00;122.00;-3.00;25.02;59.70 -->13/03/24 15:42:23*;
MES=0.00; ; ; ; V/m; 3.56V; $GNRMC,184229.000,A,1447.4273,S,03902.5210,W,14.93,270.50,130324,,,A*49;;-11.00;-144.00;-38.00;25.02;59.70 -->13/03/24 15:42:23*;
MES=0.00; ; ; ; V/m; 3.56V; $GNRMC,184229.000,A,1447.4273,S,03902.5210,W,14.93,270.50,130324,,,A*49;;-35.00;-105.00;68.00;25.02;59.70 -->13/03/24 15:42:23*;
MES=0.00; ; ; ; V/m; 3.56V; $GNRMC,184230.000,A,1447.4273,S,03902.5253,W,15.22,269.85,130324,,,A*4D;;113.00;115.00;-41.00;25.02;59.70 -->13/03/24 15:42:24*;
MES=0.00; ; ; ; V/m; 3.56V; $GNRMC,184230.000,A,1447.4273,S,03902.5253,W,15.22,269.85,130324,,,A*4D;;-135.00;0.00;34.00;25.02;59.70 -->13/03/24 15:42:24*;
MES=0.00; ; ; ; V/m; 3.56V; $GNRMC,184230.000,A,1447.4273,S,03902.5253,W,15.22,269.85,130324,,,A*4D;;92.00;-43.00;-112.00;25.02;59.70 -->13/03/24 15:42:24*;
MES=0.00; ; ; ; V/m; 3.56V; $GNRMC,184231.000,A,1447.4276,S,03902.5297,W,15.42,269.83,130324,,,A*41;;-116.00;91.00;120.00;25.02;59.70 -->13/03/24 15:42:24*;
MES=0.27; ; ; ; V/m; 3.56V; $GNRMC,184231.000,A,1447.4276,S,03902.5297,W,15.42,269.83,130324,,,A*41;;-135.00;-5.00;99.00;25.02;59.70 -->13/03/24 15:42:25*;
MES=0.00; ; ; ; V/m; 3.56V; $GNRMC,184231.000,A,1447.4276,S,03902.5297,W,15.42,269.83,130324,,,A*41;;263.00;40.00;-106.00;25.02;59.70 -->13/03/24 15:42:25*;
MES=0.00; ; ; ; V/m; 3.56V; $GNRMC,184231.000,A,1447.4276,S,03902.5297,W,15.42,269.83,130324,,,A*41;;-62.00;-100.00;-48.00;25.02;59.70 -->13/03/24 15:42:25*;
MES=0.00; ; ; ; V/m; 3.56V; $GNRMC,184232.000,A,1447.4273,S,03902.5343,W,15.50,270.78,130324,,,A*40;;54.00;47.00;-21.00;25.02;59.70 -->13/03/24 15:42:26*;
MES=0.11; ; ; ; V/m; 3.56V; $GNRMC,184232.000,A,1447.4273,S,03902.5343,W,15.50,270.78,130324,,,A*40;;-61.00;-51.00;79.00;25.02;59.70 -->13/03/24 15:42:26*;
MES=0.00; ; ; ; V/m; 3.56V; $GNRMC,184232.000,A,1447.4273,S,03902.5343,W,15.50,270.78,130324,,,A*40;;44.00;-82.00;-31.00;25.02;59.70 -->13/03/24 15:42:26*;
MES=0.00; ; ; ; V/m; 3.56V; $GNRMC,184232.000,A,1447.4273,S,03902.5343,W,15.50,270.78,130324,,,A*40;;-34.00;69.00;29.00;25.02;59.70 -->13/03/24 15:42:26*;
MES=0.00; ; ; ; V/m; 3.56V; $GNRMC,184233.000,A,1447.4271,S,03902.5389,W,15.64,269.45,130324,,,A*44;;-50.00;36.00;92.00;25.02;59.70 -->13/03/24 15:42:27*;
MES=0.00; ; ; ; V/m; 3.56V; $GNRMC,184233.000,A,1447.4271,S,03902.5389,W,15.64,269.45,130324,,,A*44;;28.00;25.00;-24.00;25.02;59.70 -->13/03/24 15:42:27*;
MES=0.00; ; ; ; V/m; 3.56V; $GNRMC,184233.000,A,1447.4271,S,03902.5389,W,15.64,269.45,130324,,,A*44;;80.00;-66.00;-61.00;25.02;59.70 -->13/03/24 15:42:27*;
MES=0.35; ; ; ; V/m; 3.56V; $GNRMC,184234.000,A,1447.4272,S,03902.5435,W,15.84,267.39,130324,,,A*4B;;-20.00;78.00;21.00;25.02;59.70 -->13/03/24 15:42:27*;
MES=0.40; ; ; ; V/m; 3.56V; $GNRMC,184234.000,A,1447.4272,S,03902.5435,W,15.84,267.39,130324,,,A*4B;;-74.00;-55.00;-59.00;25.02;59.70 -->13/03/24 15:42:28*;
MES=0.43; ; ; ; V/m; 3.56V; $GNRMC,184234.000,A,1447.4272,S,03902.5435,W,15.84,267.39,130324,,,A*4B;;46.00;77.00;79.00;25.02;59.70 -->13/03/24 15:42:28*;
MES=0.43; ; ; ; V/m; 3.56V; $GNRMC,184234.000,A,1447.4272,S,03902.5435,W,15.84,267.39,130324,,,A*4B;;-45.00;62.00;11.00;25.02;59.70 -->13/03/24 15:42:28*;
MES=0.44; ; ; ; V/m; 3.56V; $GNRMC,184235.000,A,1447.4279,S,03902.5480,W,15.17,261.86,130324,,,A*47;;39.00;-32.00;1.00;25.02;59.70 -->13/03/24 15:42:28*;
MES=0.39; ; ; ; V/m; 3.56V; $GNRMC,184235.000,A,1447.4279,S,03902.5480,W,15.17,261.86,130324,,,A*47;;-11.00;-80.00;-78.00;25.02;59.70 -->13/03/24 15:42:29*;
MES=0.00; ; ; ; V/m; 3.56V; $GNRMC,184235.000,A,1447.4279,S,03902.5480,W,15.17,261.86,130324,,,A*47;;-64.00;81.00;33.00;25.02;59.70 -->13/03/24 15:42:29*;
MES=0.00; ; ; ; V/m; 3.56V; $GNRMC,184235.000,A,1447.4279,S,03902.5480,W,15.17,261.86,130324,,,A*47;;134.00;-9.00;-7.00;25.02;59.70 -->13/03/24 15:42:29*;
MES=0.00; ; ; ; V/m; 3.56V; $GNRMC,184236.000,A,1447.4285,S,03902.5522,W,14.86,264.17,130324,,,A*4A;;-70.00;-51.00;-15.00;25.02;59.70 -->13/03/24 15:42:30*;
MES=0.00; ; ; ; V/m; 3.56V; $GNRMC,184236.000,A,1447.4285,S,03902.5522,W,14.86,264.17,130324,,,A*4A;;-4.00;-123.00;31.00;25.02;59.70 -->13/03/24 15:42:30*;
MES=0.00; ; ; ; V/m; 3.56V; $GNRMC,184236.000,A,1447.4285,S,03902.5522,W,14.86,264.17,130324,,,A*4A;;-41.00;65.00;22.00;25.02;59.70 -->13/03/24 15:42:30*;
MES=0.00; ; ; ; V/m; 3.56V; $GNRMC,184237.000,A,1447.4290,S,03902.5563,W,14.23,265.17,130324,,,A*44;;-20.00;40.00;-149.00;25.02;59.70 -->13/03/24 15:42:30*;
MES=0.00; ; ; ; V/m; 3.56V; $GNRMC,184237.000,A,1447.4290,S,03902.5563,W,14.23,265.17,130324,,,A*44;;144.00;46.00;-62.00;25.02;59.70 -->13/03/24 15:42:31*;
MES=0.00; ; ; ; V/m; 3.56V; $GNRMC,184237.000,A,1447.4290,S,03902.5563,W,14.23,265.17,130324,,,A*44;;-61.00;-51.00;200.00;25.02;59.70 -->13/03/24 15:42:31*;
MES=0.00; ; ; ; V/m; 3.56V; $GNRMC,184237.000,A,1447.4290,S,03902.5563,W,14.23,265.17,130324,,,A*44;;-33.00;171.00;-65.00;25.02;59.70 -->13/03/24 15:42:31*;
MES=0.00; ; ; ; V/m; 3.56V; $GNRMC,184238.000,A,1447.4294,S,03902.5605,W,14.78,267.08,130324,,,A*4E;;1.00;-221.00;76.00;25.02;59.70 -->13/03/24 15:42:31*;
MES=0.00; ; ; ; V/m; 3.56V; $GNRMC,184238.000,A,1447.4294,S,03902.5605,W,14.78,267.08,130324,,,A*4E;;111.00;41.00;-103.00;25.02;59.70 -->13/03/24 15:42:32*;
MES=0.00; ; ; ; V/m; 3.56V; $GNRMC,184238.000,A,1447.4294,S,03902.5605,W,14.78,267.08,130324,,,A*4E;;-171.00;26.00;141.00;25.02;59.70 -->13/03/24 15:42:32*;
MES=0.00; ; ; ; V/m; 3.56V; $GNRMC,184238.000,A,1447.4294,S,03902.5605,W,14.78,267.08,130324,,,A*4E;;100.00;19.00;-87.00;25.02;59.70 -->13/03/24 15:42:32*;
MES=0.00; ; ; ; V/m; 3.56V; $GNRMC,184239.000,A,1447.4297,S,03902.5649,W,15.51,268.05,130324,,,A*4C;;-30.00;-143.00;40.00;25.02;59.70 -->13/03/24 15:42:33*;
MES=0.00; ; ; ; V/m; 3.56V; $GNRMC,184239.000,A,1447.4297,S,03902.5649,W,15.51,268.05,130324,,,A*4C;;44.00;-29.00;-67.00;25.02;59.70 -->13/03/24 15:42:33*;
MES=0.44; ; ; ; V/m; 3.56V; $GNRMC,184239.000,A,1447.4297,S,03902.5649,W,15.51,268.05,130324,,,A*4C;;-85.00;124.00;4.00;25.02;59.70 -->13/03/24 15:42:33*;
MES=0.62; ; ; ; V/m; 3.56V; $GNRMC,184239.000,A,1447.4297,S,03902.5649,W,15.51,268.05,130324,,,A*4C;;-52.00;-103.00;69.00;25.02;59.70 -->13/03/24 15:42:33*;
MES=0.67; ; ; ; V/m; 3.56V; $GNRMC,184240.000,A,1447.4297,S,03902.5696,W,16.18,268.71,130324,,,A*4D;;32.00;73.00;-140.00;25.02;59.70 -->13/03/24 15:42:34*;
MES=0.45; ; ; ; V/m; 3.56V; $GNRMC,184240.000,A,1447.4297,S,03902.5696,W,16.18,268.71,130324,,,A*4D;;141.00;74.00;74.00;25.02;59.70 -->13/03/24 15:42:34*;
MES=0.45; ; ; ; V/m; 3.56V; $GNRMC,184240.000,A,1447.4297,S,03902.5696,W,16.18,268.71,130324,,,A*4D;;-41.00;-41.00;-166.00;25.02;59.70 -->13/03/24 15:42:34*;
MES=0.11; ; ; ; V/m; 3.56V; $GNRMC,184241.000,A,1447.4297,S,03902.5742,W,15.59,268.63,130324,,,A*41;;-59.00;-134.00;129.00;25.02;59.70 -->13/03/24 15:42:34*;
MES=0.00; ; ; ; V/m; 3.56V; $GNRMC,184241.000,A,1447.4297,S,03902.5742,W,15.59,268.63,130324,,,A*41;;35.00;16.00;174.00;25.02;59.70 -->13/03/24 15:42:35*;
MES=0.00; ; ; ; V/m; 3.56V; $GNRMC,184241.000,A,1447.4297,S,03902.5742,W,15.59,268.63,130324,,,A*41;;32.00;489.00;-48.00;25.02;59.70 -->13/03/24 15:42:35*;
MES=0.00; ; ; ; V/m; 3.56V; $GNRMC,184241.000,A,1447.4297,S,03902.5742,W,15.59,268.63,130324,,,A*41;;-96.00;-324.00;-60.00;25.02;59.70 -->13/03/24 15:42:35*;
MES=0.00; ; ; ; V/m; 3.56V; $GNRMC,184242.000,A,1447.4298,S,03902.5787,W,15.42,266.65,130324,,,A*46;;-1.00;-275.00;-43.00;25.02;59.70 -->13/03/24 15:42:36*;
MES=0.00; ; ; ; V/m; 3.56V; $GNRMC,184242.000,A,1447.4298,S,03902.5787,W,15.42,266.65,130324,,,A*46;;59.00;134.00;-63.00;25.02;59.70 -->13/03/24 15:42:36*;
MES=0.00; ; ; ; V/m; 3.56V; $GNRMC,184242.000,A,1447.4298,S,03902.5787,W,15.42,266.65,130324,,,A*46;;-66.00;47.00;107.00;25.02;59.70 -->13/03/24 15:42:36*;
MES=0.00; ; ; ; V/m; 3.56V; $GNRMC,184242.000,A,1447.4298,S,03902.5787,W,15.42,266.65,130324,,,A*46;;1.00;211.00;-4.00;25.02;59.70 -->13/03/24 15:42:36*;
MES=0.00; ; ; ; V/m; 3.56V; $GNRMC,184243.000,A,1447.4300,S,03902.5832,W,15.72,265.78,130324,,,A*4A;;6.00;-133.00;-9.00;25.02;59.70 -->13/03/24 15:42:37*;
MES=0.00; ; ; ; V/m; 3.56V; $GNRMC,184243.000,A,1447.4300,S,03902.5832,W,15.72,265.78,130324,,,A*4A;;56.00;-78.00;-3.00;25.02;59.70 -->13/03/24 15:42:37*;
MES=0.26; ; ; ; V/m; 3.56V; $GNRMC,184243.000,A,1447.4300,S,03902.5832,W,15.72,265.78,130324,,,A*4A;;44.00;47.00;10.00;25.02;59.70 -->13/03/24 15:42:37*;
MES=0.00; ; ; ; V/m; 3.56V; $GNRMC,184244.000,A,1447.4302,S,03902.5878,W,15.97,265.74,130324,,,A*46;;-38.00;-51.00;-41.00;25.02;59.70 -->13/03/24 15:42:37*;
MES=0.00; ; ; ; V/m; 3.56V; $GNRMC,184244.000,A,1447.4302,S,03902.5878,W,15.97,265.74,130324,,,A*46;;-23.00;14.00;34.00;25.02;59.70 -->13/03/24 15:42:38*;
MES=0.00; ; ; ; V/m; 3.56V; $GNRMC,184244.000,A,1447.4302,S,03902.5878,W,15.97,265.74,130324,,,A*46;;63.00;-5.00;-50.00;25.02;59.70 -->13/03/24 15:42:38*;
MES=0.00; ; ; ; V/m; 3.56V; $GNRMC,184244.000,A,1447.4302,S,03902.5878,W,15.97,265.74,130324,,,A*46;;-36.00;30.00;51.00;25.02;59.70 -->13/03/24 15:42:38*;
MES=0.21; ; ; ; V/m; 3.56V; $GNRMC,184245.000,A,1447.4305,S,03902.5926,W,16.61,267.22,130324,,,A*41;;-2.00;-24.00;-8.00;25.02;59.70 -->13/03/24 15:42:39*;
MES=0.21; ; ; ; V/m; 3.54V; $GNRMC,184245.000,A,1447.4305,S,03902.5926,W,16.61,267.22,130324,,,A*41;;-19.00;-20.00;6.00;25.02;59.70 -->13/03/24 15:42:39*;
MES=0.28; ; ; ; V/m; 3.54V; $GNRMC,184245.000,A,1447.4305,S,03902.5926,W,16.61,267.22,130324,,,A*41;;55.00;23.00;-33.00;25.02;59.70 -->13/03/24 15:42:39*;
MES=0.38; ; ; ; V/m; 3.54V; $GNRMC,184245.000,A,1447.4305,S,03902.5926,W,16.61,267.22,130324,,,A*41;;-52.00;-23.00;54.00;25.02;59.70 -->13/03/24 15:42:39*;
MES=0.24; ; ; ; V/m; 3.54V; $GNRMC,184246.000,A,1447.4306,S,03902.5975,W,17.04,267.07,130324,,,A*42;;49.00;10.00;-9.00;25.02;59.70 -->13/03/24 15:42:40*;
MES=0.21; ; ; ; V/m; 3.54V; $GNRMC,184246.000,A,1447.4306,S,03902.5975,W,17.04,267.07,130324,,,A*42;;-67.00;18.00;-28.00;25.02;59.70 -->13/03/24 15:42:40*;
MES=0.21; ; ; ; V/m; 3.54V; $GNRMC,184246.000,A,1447.4306,S,03902.5975,W,17.04,267.07,130324,,,A*42;;23.00;-35.00;24.00;25.02;59.70 -->13/03/24 15:42:40*;
MES=0.00; ; ; ; V/m; 3.54V; $GNRMC,184247.000,A,1447.4307,S,03902.6024,W,17.07,269.36,130324,,,A*43;;-13.00;29.00;11.00;25.02;59.70 -->13/03/24 15:42:40*;
MES=0.00; ; ; ; V/m; 3.54V; $GNRMC,184247.000,A,1447.4307,S,03902.6024,W,17.07,269.36,130324,,,A*43;;-5.00;-43.00;-30.00;25.02;59.70 -->13/03/24 15:42:41*;
MES=0.00; ; ; ; V/m; 3.54V; $GNRMC,184247.000,A,1447.4307,S,03902.6024,W,17.07,269.36,130324,,,A*43;;-72.00;-3.00;83.00;25.02;59.70 -->13/03/24 15:42:41*;
MES=0.00; ; ; ; V/m; 3.54V; $GNRMC,184247.000,A,1447.4307,S,03902.6024,W,17.07,269.36,130324,,,A*43;;120.00;31.00;-66.00;25.02;59.70 -->13/03/24 15:42:41*;
MES=0.40; ; ; ; V/m; 3.54V; $GNRMC,184248.000,A,1447.4307,S,03902.6072,W,16.58,269.31,130324,,,A*43;;-45.00;-38.00;40.00;25.02;59.70 -->13/03/24 15:42:41*;
MES=0.20; ; ; ; V/m; 3.54V; $GNRMC,184248.000,A,1447.4307,S,03902.6072,W,16.58,269.31,130324,,,A*43;;55.00;11.00;-22.00;25.02;59.70 -->13/03/24 15:42:42*;
MES=0.00; ; ; ; V/m; 3.54V; $GNRMC,184248.000,A,1447.4307,S,03902.6072,W,16.58,269.31,130324,,,A*43;;-15.00;39.00;4.00;25.02;59.70 -->13/03/24 15:42:42*;
MES=0.00; ; ; ; V/m; 3.54V; $GNRMC,184248.000,A,1447.4307,S,03902.6072,W,16.58,269.31,130324,,,A*43;;-14.00;-22.00;-25.00;25.02;59.70 -->13/03/24 15:42:42*;
MES=0.00; ; ; ; V/m; 3.54V; $GNRMC,184249.000,A,1447.4316,S,03902.6124,W,15.43,268.43,130324,,,A*4D;;26.00;-3.00;45.00;25.02;59.70 -->13/03/24 15:42:43*;
MES=0.00; ; ; ; V/m; 3.54V; $GNRMC,184249.000,A,1447.4316,S,03902.6124,W,15.43,268.43,130324,,,A*4D;;-54.00;25.00;-51.00;25.02;59.70 -->13/03/24 15:42:43*;
MES=0.00; ; ; ; V/m; 3.54V; $GNRMC,184249.000,A,1447.4316,S,03902.6124,W,15.43,268.43,130324,,,A*4D;;8.00;-66.00;9.00;25.02;59.70 -->13/03/24 15:42:43*;
MES=0.00; ; ; ; V/m; 3.54V; $GNRMC,184250.000,A,1447.4324,S,03902.6170,W,14.53,263.33,130324,,,A*49;;17.00;40.00;9.00;25.02;59.70 -->13/03/24 15:42:43*;
MES=0.25; ; ; ; V/m; 3.54V; $GNRMC,184250.000,A,1447.4324,S,03902.6170,W,14.53,263.33,130324,,,A*49;;1.00;45.00;-72.00;25.02;59.70 -->13/03/24 15:42:44*;
MES=0.25; ; ; ; V/m; 3.54V; $GNRMC,184250.000,A,1447.4324,S,03902.6170,W,14.53,263.33,130324,,,A*49;;-14.00;-21.00;89.00;25.02;59.70 -->13/03/24 15:42:44*;
MES=0.25; ; ; ; V/m; 3.54V; $GNRMC,184250.000,A,1447.4324,S,03902.6170,W,14.53,263.33,130324,,,A*49;;-37.00;-17.00;-54.00;25.02;59.70 -->13/03/24 15:42:44*;
MES=0.00; ; ; ; V/m; 3.54V; $GNRMC,184251.000,A,1447.4331,S,03902.6213,W,14.03,260.48,130324,,,A*40;;59.00;16.00;10.00;25.02;59.70 -->13/03/24 15:42:44*;
MES=0.00; ; ; ; V/m; 3.54V; $GNRMC,184251.000,A,1447.4331,S,03902.6213,W,14.03,260.48,130324,,,A*40;;29.00;27.00;17.00;25.02;59.70 -->13/03/24 15:42:45*;
MES=0.00; ; ; ; V/m; 3.54V; $GNRMC,184251.000,A,1447.4331,S,03902.6213,W,14.03,260.48,130324,,,A*40;;-8.00;-36.00;-25.00;25.02;59.70 -->13/03/24 15:42:45*;
MES=0.00; ; ; ; V/m; 3.54V; $GNRMC,184251.000,A,1447.4331,S,03902.6213,W,14.03,260.48,130324,,,A*40;;-16.00;-66.00;-22.00;25.02;59.70 -->13/03/24 15:42:45*;
MES=0.00; ; ; ; V/m; 3.54V; $GNRMC,184252.000,A,1447.4340,S,03902.6255,W,14.49,257.24,130324,,,A*47;;-4.00;63.00;-1.00;25.02;59.70 -->13/03/24 15:42:46*;
MES=0.30; ; ; ; V/m; 3.54V; $GNRMC,184252.000,A,1447.4340,S,03902.6255,W,14.49,257.24,130324,,,A*47;;-39.00;-34.00;8.00;25.02;59.70 -->13/03/24 15:42:46*;
MES=0.22; ; ; ; V/m; 3.54V; $GNRMC,184252.000,A,1447.4340,S,03902.6255,W,14.49,257.24,130324,,,A*47;;27.00;122.00;51.00;25.02;59.70 -->13/03/24 15:42:46*;
MES=0.00; ; ; ; V/m; 3.54V; $GNRMC,184252.000,A,1447.4340,S,03902.6255,W,14.49,257.24,130324,,,A*47;;25.00;101.00;-38.00;25.02;59.70 -->13/03/24 15:42:46*;
MES=0.00; ; ; ; V/m; 3.54V; $GNRMC,184253.000,A,1447.4350,S,03902.6299,W,15.40,257.08,130324,,,A*41;;-98.00;-154.00;95.00;25.02;59.70 -->13/03/24 15:42:47*;
MES=0.00; ; ; ; V/m; 3.54V; $GNRMC,184253.000,A,1447.4350,S,03902.6299,W,15.40,257.08,130324,,,A*41;;122.00;9.00;-43.00;25.02;59.70 -->13/03/24 15:42:47*;
MES=0.00; ; ; ; V/m; 3.54V; $GNRMC,184253.000,A,1447.4350,S,03902.6299,W,15.40,257.08,130324,,,A*41;;-119.00;-26.00;3.00;25.02;59.70 -->13/03/24 15:42:47*;
MES=0.00; ; ; ; V/m; 3.54V; $GNRMC,184254.000,A,1447.4362,S,03902.6344,W,16.17,253.60,130324,,,A*4D;;108.00;-13.00;-32.00;25.02;59.70 -->13/03/24 15:42:47*;
MES=0.28; ; ; ; V/m; 3.54V; $GNRMC,184254.000,A,1447.4362,S,03902.6344,W,16.17,253.60,130324,,,A*4D;;-37.00;21.00;18.00;25.02;59.70 -->13/03/24 15:42:48*;
MES=0.11; ; ; ; V/m; 3.54V; $GNRMC,184254.000,A,1447.4362,S,03902.6344,W,16.17,253.60,130324,,,A*4D;;17.00;-13.00;14.00;25.02;59.70 -->13/03/24 15:42:48*;
MES=0.00; ; ; ; V/m; 3.54V; $GNRMC,184254.000,A,1447.4362,S,03902.6344,W,16.17,253.60,130324,,,A*4D;;-35.00;-6.00;-22.00;25.02;59.70 -->13/03/24 15:42:48*;
MES=0.00; ; ; ; V/m; 3.54V; $GNRMC,184255.000,A,1447.4374,S,03902.6390,W,16.52,253.34,130324,,,A*42;;44.00;19.00;-3.00;25.02;59.70 -->13/03/24 15:42:49*;
MES=0.41; ; ; ; V/m; 3.54V; $GNRMC,184255.000,A,1447.4374,S,03902.6390,W,16.52,253.34,130324,,,A*42;;-3.00;4.00;11.00;25.02;59.70 -->13/03/24 15:42:49*;
MES=0.22; ; ; ; V/m; 3.54V; $GNRMC,184255.000,A,1447.4374,S,03902.6390,W,16.52,253.34,130324,,,A*42;;-7.00;-20.00;-17.00;25.02;59.70 -->13/03/24 15:42:49*;
MES=0.22; ; ; ; V/m; 3.54V; $GNRMC,184255.000,A,1447.4374,S,03902.6390,W,16.52,253.34,130324,,,A*42;;-17.00;12.00;-1.00;25.02;59.70 -->13/03/24 15:42:49*;
MES=0.51; ; ; ; V/m; 3.54V; $GNRMC,184256.000,A,1447.4387,S,03902.6437,W,16.55,251.74,130324,,,A*46;;2.00;0.00;6.00;25.02;59.70 -->13/03/24 15:42:50*;
MES=0.32; ; ; ; V/m; 3.54V; $GNRMC,184256.000,A,1447.4387,S,03902.6437,W,16.55,251.74,130324,,,A*46;;-2.00;19.00;24.00;25.02;59.70 -->13/03/24 15:42:50*;
MES=0.00; ; ; ; V/m; 3.54V; $GNRMC,184256.000,A,1447.4387,S,03902.6437,W,16.55,251.74,130324,,,A*46;;40.00;-20.00;-2.00;25.02;59.70 -->13/03/24 15:42:50*;
MES=0.00; ; ; ; V/m; 3.54V; $GNRMC,184257.000,A,1447.4401,S,03902.6483,W,16.92,252.15,130324,,,A*4E;;-55.00;-13.00;19.00;25.02;59.70 -->13/03/24 15:42:50*;
MES=0.00; ; ; ; V/m; 3.54V; $GNRMC,184257.000,A,1447.4401,S,03902.6483,W,16.92,252.15,130324,,,A*4E;;51.00;23.00;-20.00;25.02;59.70 -->13/03/24 15:42:51*;
MES=0.00; ; ; ; V/m; 3.54V; $GNRMC,184257.000,A,1447.4401,S,03902.6483,W,16.92,252.15,130324,,,A*4E;;-39.00;-19.00;62.00;25.02;59.70 -->13/03/24 15:42:51*;
MES=0.00; ; ; ; V/m; 3.54V; $GNRMC,184257.000,A,1447.4401,S,03902.6483,W,16.92,252.15,130324,,,A*4E;;22.00;-8.00;-19.00;25.02;59.70 -->13/03/24 15:42:51*;
MES=0.00; ; ; ; V/m; 3.54V; $GNRMC,184258.000,A,1447.4416,S,03902.6530,W,16.99,251.67,130324,,,A*43;;-18.00;-2.00;15.00;25.02;59.70 -->13/03/24 15:42:52*;
MES=0.00; ; ; ; V/m; 3.54V; $GNRMC,184258.000,A,1447.4416,S,03902.6530,W,16.99,251.67,130324,,,A*43;;-4.00;2.00;-8.00;25.02;59.70 -->13/03/24 15:42:52*;
MES=0.00; ; ; ; V/m; 3.54V; $GNRMC,184258.000,A,1447.4416,S,03902.6530,W,16.99,251.67,130324,,,A*43;;-17.00;-11.00;-8.00;25.02;59.70 -->13/03/24 15:42:52*;
MES=0.39; ; ; ; V/m; 3.54V; $GNRMC,184258.000,A,1447.4416,S,03902.6530,W,16.99,251.67,130324,,,A*43;;5.00;-59.00;44.00;25.02;59.70 -->13/03/24 15:42:52*;
MES=0.00; ; ; ; V/m; 3.54V; $GNRMC,184259.000,A,1447.4431,S,03902.6575,W,15.89,249.91,130324,,,A*44;;57.00;88.00;-5.00;25.02;59.70 -->13/03/24 15:42:53*;
MES=0.00; ; ; ; V/m; 3.54V; $GNRMC,184259.000,A,1447.4431,S,03902.6575,W,15.89,249.91,130324,,,A*44;;-50.00;-7.00;-66.00;25.02;59.70 -->13/03/24 15:42:53*;
MES=0.00; ; ; ; V/m; 3.54V; $GNRMC,184259.000,A,1447.4431,S,03902.6575,W,15.89,249.91,130324,,,A*44;;24.00;4.00;1.00;25.02;59.70 -->13/03/24 15:42:53*;
MES=0.00; ; ; ; V/m; 3.54V; $GNRMC,184300.000,A,1447.4445,S,03902.6615,W,13.80,249.98,130324,,,A*49;;-21.00;-16.00;-21.00;25.02;59.70 -->13/03/24 15:42:53*;
MES=0.00; ; ; ; V/m; 3.54V; $GNRMC,184300.000,A,1447.4445,S,03902.6615,W,13.80,249.98,130324,,,A*49;;24.00;6.00;-6.00;25.02;59.70 -->13/03/24 15:42:54*;
MES=0.28; ; ; ; V/m; 3.54V; $GNRMC,184300.000,A,1447.4445,S,03902.6615,W,13.80,249.98,130324,,,A*49;;-26.00;-45.00;5.00;25.02;59.70 -->13/03/24 15:42:54*;
MES=0.12; ; ; ; V/m; 3.54V; $GNRMC,184300.000,A,1447.4445,S,03902.6615,W,13.80,249.98,130324,,,A*49;;9.00;8.00;-14.00;25.02;59.70 -->13/03/24 15:42:54*;
MES=0.00; ; ; ; V/m; 3.54V; $GNRMC,184301.000,A,1447.4456,S,03902.6650,W,12.28,253.26,130324,,,A*46;;-9.00;26.00;7.00;25.02;59.70 -->13/03/24 15:42:55*;
MES=0.00; ; ; ; V/m; 3.54V; $GNRMC,184301.000,A,1447.4456,S,03902.6650,W,12.28,253.26,130324,,,A*46;;41.00;25.00;58.00;25.02;59.70 -->13/03/24 15:42:55*;
MES=0.00; ; ; ; V/m; 3.54V; $GNRMC,184301.000,A,1447.4456,S,03902.6650,W,12.28,253.26,130324,,,A*46;;4.00;-52.00;33.00;25.02;59.70 -->13/03/24 15:42:55*;
MES=0.00; ; ; ; V/m; 3.54V; $GNRMC,184301.000,A,1447.4456,S,03902.6650,W,12.28,253.26,130324,,,A*46;;-32.00;45.00;-40.00;25.02;59.70 -->13/03/24 15:42:55*;
MES=0.00; ; ; ; V/m; 3.54V; $GNRMC,184302.000,A,1447.4466,S,03902.6683,W,12.00,252.37,130324,,,A*43;;27.00;-16.00;-4.00;25.02;59.70 -->13/03/24 15:42:56*;
MES=0.12; ; ; ; V/m; 3.54V; $GNRMC,184302.000,A,1447.4466,S,03902.6683,W,12.00,252.37,130324,,,A*43;;-53.00;-20.00;70.00;25.02;59.70 -->13/03/24 15:42:56*;
MES=0.00; ; ; ; V/m; 3.54V; $GNRMC,184302.000,A,1447.4466,S,03902.6683,W,12.00,252.37,130324,,,A*43;;-8.00;-30.00;-64.00;25.02;59.70 -->13/03/24 15:42:56*;
MES=0.00; ; ; ; V/m; 3.54V; $GNRMC,184302.000,A,1447.4466,S,03902.6683,W,12.00,252.37,130324,,,A*43;;44.00;40.00;41.00;25.02;59.70 -->13/03/24 15:42:56*;
MES=0.00; ; ; ; V/m; 3.54V; $GNRMC,184303.000,A,1447.4477,S,03902.6713,W,10.54,250.30,130324,,,A*4C;;-16.00;0.00;-17.00;25.02;59.70 -->13/03/24 15:42:57*;
MES=0.00; ; ; ; V/m; 3.54V; $GNRMC,184303.000,A,1447.4477,S,03902.6713,W,10.54,250.30,130324,,,A*4C;;3.00;-27.00;-19.00;25.02;59.70 -->13/03/24 15:42:57*;
MES=0.00; ; ; ; V/m; 3.54V; $GNRMC,184303.000,A,1447.4477,S,03902.6713,W,10.54,250.30,130324,,,A*4C;;2.00;17.00;16.00;25.02;59.70 -->13/03/24 15:42:57*;
MES=0.00; ; ; ; V/m; 3.54V; $GNRMC,184303.000,A,1447.4477,S,03902.6713,W,10.54,250.30,130324,,,A*4C;;-2.00;2.00;-7.00;25.02;59.70 -->13/03/24 15:42:57*;
MES=0.00; ; ; ; V/m; 3.54V; $GNRMC,184304.000,A,1447.4487,S,03902.6738,W,8.13,246.67,130324,,,A*72;;-4.00;-12.00;17.00;25.02;59.70 -->13/03/24 15:42:58*;
MES=0.00; ; ; ; V/m; 3.54V; $GNRMC,184304.000,A,1447.4487,S,03902.6738,W,8.13,246.67,130324,,,A*72;;3.00;8.00;-22.00;25.02;59.70 -->13/03/24 15:42:58*;
MES=0.00; ; ; ; V/m; 3.54V; $GNRMC,184304.000,A,1447.4487,S,03902.6738,W,8.13,246.67,130324,,,A*72;;11.00;-11.00;-6.00;25.02;59.70 -->13/03/24 15:42:58*;
MES=0.00; ; ; ; V/m; 3.54V; $GNRMC,184305.000,A,1447.4496,S,03902.6755,W,5.60,244.22,130324,,,A*72;;0.00;20.00;-3.00;25.02;59.70 -->13/03/24 15:42:59*;
MES=0.00; ; ; ; V/m; 3.54V; $GNRMC,184305.000,A,1447.4496,S,03902.6755,W,5.60,244.22,130324,,,A*72;;-22.00;-4.00;-33.00;25.02;59.70 -->13/03/24 15:42:59*;
MES=0.22; ; ; ; V/m; 3.54V; $GNRMC,184305.000,A,1447.4496,S,03902.6755,W,5.60,244.22,130324,,,A*72;;-2.00;10.00;2.00;25.02;59.70 -->13/03/24 15:42:59*;
MES=0.11; ; ; ; V/m; 3.54V; $GNRMC,184305.000,A,1447.4496,S,03902.6755,W,5.60,244.22,130324,,,A*72;;14.00;-2.00;-2.00;25.02;59.70 -->13/03/24 15:42:59*;
MES=0.00; ; ; ; V/m; 3.54V; $GNRMC,184306.000,A,1447.4501,S,03902.6766,W,3.11,249.32,130324,,,A*72;;2.00;7.00;-10.00;25.02;59.70 -->13/03/24 15:43:00*;
MES=0.00; ; ; ; V/m; 3.54V; $GNRMC,184306.000,A,1447.4501,S,03902.6766,W,3.11,249.32,130324,,,A*72;;-15.00;10.00;-11.00;25.28;61.79 -->13/03/24 15:43:00*;
MES=0.00; ; ; ; V/m; 3.54V; $GNRMC,184306.000,A,1447.4501,S,03902.6766,W,3.11,249.32,130324,,,A*72;;-1.00;4.00;-4.00;25.28;61.79 -->13/03/24 15:43:00*;
MES=0.21; ; ; ; V/m; 3.54V; $GNRMC,184306.000,A,1447.4501,S,03902.6766,W,3.11,249.32,130324,,,A*72;;0.00;5.00;-2.00;25.28;61.79 -->13/03/24 15:43:00*;
MES=0.12; ; ; ; V/m; 3.54V; $GNRMC,184307.000,A,1447.4505,S,03902.6771,W,1.81,249.32,130324,,,A*7A;;18.00;1.00;-11.00;25.28;61.79 -->13/03/24 15:43:01*;
MES=0.00; ; ; ; V/m; 3.54V; $GNRMC,184307.000,A,1447.4505,S,03902.6771,W,1.81,249.32,130324,,,A*7A;;-21.00;-1.00;2.00;25.28;61.79 -->13/03/24 15:43:01*;
MES=0.00; ; ; ; V/m; 3.54V; $GNRMC,184307.000,A,1447.4505,S,03902.6771,W,1.81,249.32,130324,,,A*7A;;-2.00;-13.00;-8.00;25.28;61.79 -->13/03/24 15:43:01*;
MES=0.00; ; ; ; V/m; 3.54V; $GNRMC,184308.000,A,1447.4506,S,03902.6775,W,1.36,249.32,130324,,,A*7E;;22.00;15.00;6.00;25.28;61.79 -->13/03/24 15:43:02*;
MES=0.00; ; ; ; V/m; 3.54V; $GNRMC,184308.000,A,1447.4506,S,03902.6775,W,1.36,249.32,130324,,,A*7E;;13.00;12.00;-1.00;25.28;61.79 -->13/03/24 15:43:02*;
MES=0.26; ; ; ; V/m; 3.54V; $GNRMC,184308.000,A,1447.4506,S,03902.6775,W,1.36,249.32,130324,,,A*7E;;-11.00;-7.00;-13.00;25.28;61.79 -->13/03/24 15:43:02*;
MES=0.00; ; ; ; V/m; 3.54V; $GNRMC,184308.000,A,1447.4506,S,03902.6775,W,1.36,249.32,130324,,,A*7E;;-36.00;-15.00;5.00;25.28;61.79 -->13/03/24 15:43:02*;
MES=0.00; ; ; ; V/m; 3.54V; $GNRMC,184309.000,A,1447.4508,S,03902.6780,W,1.97,249.32,130324,,,A*70;;24.00;26.00;-2.00;25.28;61.79 -->13/03/24 15:43:03*;
MES=0.00; ; ; ; V/m; 3.54V; $GNRMC,184309.000,A,1447.4508,S,03902.6780,W,1.97,249.32,130324,,,A*70;;9.00;0.00;-6.00;25.28;61.79 -->13/03/24 15:43:03*;
MES=0.00; ; ; ; V/m; 3.54V; $GNRMC,184309.000,A,1447.4508,S,03902.6780,W,1.97,249.32,130324,,,A*70;;-2.00;0.00;-11.00;25.28;61.79 -->13/03/24 15:43:03*;
MES=0.12; ; ; ; V/m; 3.54V; $GNRMC,184309.000,A,1447.4508,S,03902.6780,W,1.97,249.32,130324,,,A*70;;15.00;4.00;25.00;25.28;61.79 -->13/03/24 15:43:03*;
MES=0.00; ; ; ; V/m; 3.54V; $GNRMC,184310.000,A,1447.4512,S,03902.6785,W,3.04,254.47,130324,,,A*70;;-26.00;-15.00;-54.00;25.28;61.79 -->13/03/24 15:43:04*;
MES=0.00; ; ; ; V/m; 3.54V; $GNRMC,184310.000,A,1447.4512,S,03902.6785,W,3.04,254.47,130324,,,A*70;;19.00;9.00;19.00;25.28;61.79 -->13/03/24 15:43:04*;
MES=0.00; ; ; ; V/m; 3.54V; $GNRMC,184310.000,A,1447.4512,S,03902.6785,W,3.04,254.47,130324,,,A*70;;-2.00;29.00;11.00;25.28;61.79 -->13/03/24 15:43:04*;
MES=0.31; ; ; ; V/m; 3.54V; $GNRMC,184311.000,A,1447.4517,S,03902.6795,W,4.32,251.08,130324,,,A*79;;-24.00;1.00;0.00;25.28;61.79 -->13/03/24 15:43:05*;
MES=0.00; ; ; ; V/m; 3.54V; $GNRMC,184311.000,A,1447.4517,S,03902.6795,W,4.32,251.08,130324,,,A*79;;26.00;-25.00;-22.00;25.28;61.79 -->13/03/24 15:43:05*;
MES=0.00; ; ; ; V/m; 3.54V; $GNRMC,184311.000,A,1447.4517,S,03902.6795,W,4.32,251.08,130324,,,A*79;;-8.00;25.00;45.00;25.28;61.79 -->13/03/24 15:43:05*;
MES=0.00; ; ; ; V/m; 3.54V; $GNRMC,184311.000,A,1447.4517,S,03902.6795,W,4.32,251.08,130324,,,A*79;;0.00;-23.00;-37.00;25.28;61.79 -->13/03/24 15:43:05*;
MES=0.00; ; ; ; V/m; 3.54V; $GNRMC,184312.000,A,1447.4522,S,03902.6808,W,6.45,253.16,130324,,,A*78;;-7.00;5.00;32.00;25.28;61.79 -->13/03/24 15:43:06*;
MES=0.40; ; ; ; V/m; 3.54V; $GNRMC,184312.000,A,1447.4522,S,03902.6808,W,6.45,253.16,130324,,,A*78;;-11.00;2.00;-5.00;25.28;61.79 -->13/03/24 15:43:06*;
MES=0.40; ; ; ; V/m; 3.54V; $GNRMC,184312.000,A,1447.4522,S,03902.6808,W,6.45,253.16,130324,,,A*78;;-9.00;-63.00;-3.00;25.28;61.79 -->13/03/24 15:43:06*;
MES=0.23; ; ; ; V/m; 3.54V; $GNRMC,184312.000,A,1447.4522,S,03902.6808,W,6.45,253.16,130324,,,A*78;;66.00;27.00;36.00;25.28;61.79 -->13/03/24 15:43:06*;
MES=0.23; ; ; ; V/m; 3.54V; $GNRMC,184313.000,A,1447.4528,S,03902.6828,W,8.61,252.84,130324,,,A*73;;-47.00;-1.00;-92.00;25.28;61.79 -->13/03/24 15:43:07*;
MES=0.21; ; ; ; V/m; 3.54V; $GNRMC,184313.000,A,1447.4528,S,03902.6828,W,8.61,252.84,130324,,,A*73;;-22.00;13.00;88.00;25.28;61.79 -->13/03/24 15:43:07*;
MES=0.21; ; ; ; V/m; 3.54V; $GNRMC,184313.000,A,1447.4528,S,03902.6828,W,8.61,252.84,130324,,,A*73;;20.00;-4.00;-26.00;25.28;61.79 -->13/03/24 15:43:07*;
MES=0.40; ; ; ; V/m; 3.54V; $GNRMC,184313.000,A,1447.4528,S,03902.6828,W,8.61,252.84,130324,,,A*73;;9.00;-2.00;7.00;25.28;61.79 -->13/03/24 15:43:08*;
MES=0.54; ; ; ; V/m; 3.54V; $GNRMC,184314.000,A,1447.4535,S,03902.6854,W,10.23,253.40,130324,,,A*45;;-10.00;23.00;-3.00;25.28;61.79 -->13/03/24 15:43:08*;
MES=0.75; ; ; ; V/m; 3.54V; $GNRMC,184314.000,A,1447.4535,S,03902.6854,W,10.23,253.40,130324,,,A*45;;26.00;2.00;-8.00;25.28;61.79 -->13/03/24 15:43:08*;
MES=0.45; ; ; ; V/m; 3.54V; $GNRMC,184314.000,A,1447.4535,S,03902.6854,W,10.23,253.40,130324,,,A*45;;-7.00;-15.00;4.00;25.28;61.79 -->13/03/24 15:43:08*;
MES=0.00; ; ; ; V/m; 3.54V; $GNRMC,184315.000,A,1447.4545,S,03902.6883,W,11.60,252.10,130324,,,A*4B;;14.00;-4.00;10.00;25.28;61.79 -->13/03/24 15:43:09*;
MES=0.00; ; ; ; V/m; 3.54V; $GNRMC,184315.000,A,1447.4545,S,03902.6883,W,11.60,252.10,130324,,,A*4B;;0.00;-27.00;36.00;25.28;61.79 -->13/03/24 15:43:09*;
MES=0.00; ; ; ; V/m; 3.54V; $GNRMC,184315.000,A,1447.4545,S,03902.6883,W,11.60,252.10,130324,,,A*4B;;-24.00;28.00;4.00;25.28;61.79 -->13/03/24 15:43:09*;
MES=0.00; ; ; ; V/m; 3.54V; $GNRMC,184315.000,A,1447.4545,S,03902.6883,W,11.60,252.10,130324,,,A*4B;;34.00;4.00;-2.00;25.28;61.79 -->13/03/24 15:43:09*;
MES=0.00; ; ; ; V/m; 3.54V; $GNRMC,184316.000,A,1447.4556,S,03902.6916,W,12.77,251.65,130324,,,A*43;;0.00;18.00;-1.00;25.28;61.79 -->13/03/24 15:43:10*;
MES=0.00; ; ; ; V/m; 3.54V; $GNRMC,184316.000,A,1447.4556,S,03902.6916,W,12.77,251.65,130324,,,A*43;;-23.00;-40.00;-13.00;25.28;61.79 -->13/03/24 15:43:10*;
MES=0.00; ; ; ; V/m; 3.54V; $GNRMC,184316.000,A,1447.4556,S,03902.6916,W,12.77,251.65,130324,,,A*43;;-35.00;-4.00;-7.00;25.28;61.79 -->13/03/24 15:43:10*;
MES=0.00; ; ; ; V/m; 3.54V; $GNRMC,184316.000,A,1447.4556,S,03902.6916,W,12.77,251.65,130324,,,A*43;;49.00;23.00;16.00;25.28;61.79 -->13/03/24 15:43:10*;
MES=0.00; ; ; ; V/m; 3.54V; $GNRMC,184317.000,A,1447.4567,S,03902.6951,W,13.16,251.04,130324,,,A*42;;-27.00;-8.00;-25.00;25.28;61.79 -->13/03/24 15:43:11*;
MES=0.00; ; ; ; V/m; 3.54V; $GNRMC,184317.000,A,1447.4567,S,03902.6951,W,13.16,251.04,130324,,,A*42;;-7.00;4.00;32.00;25.28;61.79 -->13/03/24 15:43:11*;
MES=0.00; ; ; ; V/m; 3.54V; $GNRMC,184317.000,A,1447.4567,S,03902.6951,W,13.16,251.04,130324,,,A*42;;-2.00;4.00;-24.00;25.28;61.79 -->13/03/24 15:43:11*;
MES=0.00; ; ; ; V/m; 3.54V; $GNRMC,184318.000,A,1447.4580,S,03902.6986,W,12.93,250.87,130324,,,A*48;;23.00;-13.00;23.00;25.28;61.79 -->13/03/24 15:43:12*;
MES=0.43; ; ; ; V/m; 3.54V; $GNRMC,184318.000,A,1447.4580,S,03902.6986,W,12.93,250.87,130324,,,A*48;;-28.00;-14.00;-39.00;25.28;61.79 -->13/03/24 15:43:12*;
MES=0.42; ; ; ; V/m; 3.54V; $GNRMC,184318.000,A,1447.4580,S,03902.6986,W,12.93,250.87,130324,,,A*48;;8.00;31.00;27.00;25.28;61.79 -->13/03/24 15:43:12*;
MES=0.40; ; ; ; V/m; 3.54V; $GNRMC,184318.000,A,1447.4580,S,03902.6986,W,12.93,250.87,130324,,,A*48;;0.00;-8.00;-3.00;25.28;61.79 -->13/03/24 15:43:12*;
MES=0.23; ; ; ; V/m; 3.54V; $GNRMC,184319.000,A,1447.4592,S,03902.7021,W,12.96,251.78,130324,,,A*4B;;19.00;7.00;-56.00;25.28;61.79 -->13/03/24 15:43:13*;
MES=0.00; ; ; ; V/m; 3.54V; $GNRMC,184319.000,A,1447.4592,S,03902.7021,W,12.96,251.78,130324,,,A*4B;;-26.00;0.00;13.00;25.28;61.79 -->13/03/24 15:43:13*;
MES=0.00; ; ; ; V/m; 3.54V; $GNRMC,184319.000,A,1447.4592,S,03902.7021,W,12.96,251.78,130324,,,A*4B;;-1.00;22.00;34.00;25.28;61.79 -->13/03/24 15:43:13*;
MES=0.00; ; ; ; V/m; 3.54V; $GNRMC,184319.000,A,1447.4592,S,03902.7021,W,12.96,251.78,130324,,,A*4B;;21.00;-21.00;1.00;25.28;61.79 -->13/03/24 15:43:13*;
MES=0.00; ; ; ; V/m; 3.54V; $GNRMC,184320.000,A,1447.4604,S,03902.7056,W,13.41,251.61,130324,,,A*4E;;-23.00;-6.00;40.00;25.28;61.79 -->13/03/24 15:43:14*;
MES=0.00; ; ; ; V/m; 3.54V; $GNRMC,184320.000,A,1447.4604,S,03902.7056,W,13.41,251.61,130324,,,A*4E;;30.00;-4.00;-25.00;25.28;61.79 -->13/03/24 15:43:14*;
MES=0.28; ; ; ; V/m; 3.54V; $GNRMC,184320.000,A,1447.4604,S,03902.7056,W,13.41,251.61,130324,,,A*4E;;-13.00;-35.00;-7.00;25.28;61.79 -->13/03/24 15:43:14*;
MES=0.28; ; ; ; V/m; 3.54V; $GNRMC,184321.000,A,1447.4617,S,03902.7094,W,14.36,251.67,130324,,,A*42;;-13.00;42.00;42.00;25.28;61.79 -->13/03/24 15:43:15*;
MES=0.31; ; ; ; V/m; 3.54V; $GNRMC,184321.000,A,1447.4617,S,03902.7094,W,14.36,251.67,130324,,,A*42;;-7.00;20.00;-55.00;25.28;61.79 -->13/03/24 15:43:15*;
MES=0.12; ; ; ; V/m; 3.54V; $GNRMC,184321.000,A,1447.4617,S,03902.7094,W,14.36,251.67,130324,,,A*42;;-13.00;-70.00;27.00;25.28;61.79 -->13/03/24 15:43:15*;
MES=0.00; ; ; ; V/m; 3.54V; $GNRMC,184321.000,A,1447.4617,S,03902.7094,W,14.36,251.67,130324,,,A*42;;32.00;50.00;-46.00;25.28;61.79 -->13/03/24 15:43:15*;
MES=0.00; ; ; ; V/m; 3.54V; $GNRMC,184322.000,A,1447.4630,S,03902.7134,W,14.32,250.55,130324,,,A*4B;;2.00;-39.00;39.00;25.28;61.79 -->13/03/24 15:43:16*;
MES=0.00; ; ; ; V/m; 3.54V; $GNRMC,184322.000,A,1447.4630,S,03902.7134,W,14.32,250.55,130324,,,A*4B;;19.00;24.00;6.00;25.28;61.79 -->13/03/24 15:43:16*;
MES=0.31; ; ; ; V/m; 3.54V; $GNRMC,184322.000,A,1447.4630,S,03902.7134,W,14.32,250.55,130324,,,A*4B;;-47.00;-31.00;-20.00;25.28;61.79 -->13/03/24 15:43:16*;
MES=0.25; ; ; ; V/m; 3.54V; $GNRMC,184322.000,A,1447.4630,S,03902.7134,W,14.32,250.55,130324,,,A*4B;;33.00;35.00;17.00;25.28;61.79 -->13/03/24 15:43:16*;
MES=0.25; ; ; ; V/m; 3.54V; $GNRMC,184323.000,A,1447.4643,S,03902.7172,W,13.96,251.61,130324,,,A*43;;-34.00;91.00;-4.00;25.28;61.79 -->13/03/24 15:43:17*;
MES=0.29; ; ; ; V/m; 3.54V; $GNRMC,184323.000,A,1447.4643,S,03902.7172,W,13.96,251.61,130324,,,A*43;;22.00;-28.00;56.00;25.28;61.79 -->13/03/24 15:43:17*;
MES=0.29; ; ; ; V/m; 3.54V; $GNRMC,184323.000,A,1447.4643,S,03902.7172,W,13.96,251.61,130324,,,A*43;;13.00;-45.00;-168.00;25.28;61.79 -->13/03/24 15:43:17*;
MES=0.30; ; ; ; V/m; 3.54V; $GNRMC,184324.000,A,1447.4657,S,03902.7210,W,13.93,250.10,130324,,,A*44;;-23.00;1.00;112.00;25.28;61.79 -->13/03/24 15:43:18*;
MES=0.30; ; ; ; V/m; 3.54V; $GNRMC,184324.000,A,1447.4657,S,03902.7210,W,13.93,250.10,130324,,,A*44;;24.00;-1.00;-26.00;25.28;61.79 -->13/03/24 15:43:18*;
MES=0.12; ; ; ; V/m; 3.54V; $GNRMC,184324.000,A,1447.4657,S,03902.7210,W,13.93,250.10,130324,,,A*44;;-23.00;-28.00;18.00;25.28;61.79 -->13/03/24 15:43:18*;
MES=0.00; ; ; ; V/m; 3.54V; $GNRMC,184324.000,A,1447.4657,S,03902.7210,W,13.93,250.10,130324,,,A*44;;30.00;21.00;-44.00;25.28;61.79 -->13/03/24 15:43:18*;
MES=0.00; ; ; ; V/m; 3.54V; $GNRMC,184325.000,A,1447.4671,S,03902.7249,W,14.66,250.52,130324,,,A*46;;-13.00;-10.00;-8.00;25.28;61.79 -->13/03/24 15:43:19*;
MES=0.00; ; ; ; V/m; 3.54V; $GNRMC,184325.000,A,1447.4671,S,03902.7249,W,14.66,250.52,130324,,,A*46;;-4.00;16.00;37.00;25.28;61.79 -->13/03/24 15:43:19*;
MES=0.00; ; ; ; V/m; 3.54V; $GNRMC,184325.000,A,1447.4671,S,03902.7249,W,14.66,250.52,130324,,,A*46;;-20.00;-20.00;-10.00;25.28;61.79 -->13/03/24 15:43:19*;
MES=0.36; ; ; ; V/m; 3.54V; $GNRMC,184325.000,A,1447.4671,S,03902.7249,W,14.66,250.52,130324,,,A*46;;29.00;32.00;18.00;25.28;61.79 -->13/03/24 15:43:19*;
MES=0.22; ; ; ; V/m; 3.54V; $GNRMC,184326.000,A,1447.4685,S,03902.7289,W,15.55,250.07,130324,,,A*43;;18.00;-29.00;-31.00;25.28;61.79 -->13/03/24 15:43:20*;
MES=0.22; ; ; ; V/m; 3.54V; $GNRMC,184326.000,A,1447.4685,S,03902.7289,W,15.55,250.07,130324,,,A*43;;-35.00;37.00;47.00;25.28;61.79 -->13/03/24 15:43:20*;
MES=0.23; ; ; ; V/m; 3.54V; $GNRMC,184326.000,A,1447.4685,S,03902.7289,W,15.55,250.07,130324,,,A*43;;17.00;-14.00;-32.00;25.28;61.79 -->13/03/24 15:43:20*;
MES=0.00; ; ; ; V/m; 3.54V; $GNRMC,184327.000,A,1447.4701,S,03902.7332,W,16.47,249.75,130324,,,A*43;;-14.00;-33.00;33.00;25.28;61.79 -->13/03/24 15:43:21*;
MES=0.00; ; ; ; V/m; 3.54V; $GNRMC,184327.000,A,1447.4701,S,03902.7332,W,16.47,249.75,130324,,,A*43;;-17.00;18.00;-9.00;25.28;61.79 -->13/03/24 15:43:21*;
MES=0.00; ; ; ; V/m; 3.54V; $GNRMC,184327.000,A,1447.4701,S,03902.7332,W,16.47,249.75,130324,,,A*43;;45.00;-7.00;24.00;25.28;61.79 -->13/03/24 15:43:21*;
MES=0.00; ; ; ; V/m; 3.54V; $GNRMC,184327.000,A,1447.4701,S,03902.7332,W,16.47,249.75,130324,,,A*43;;-22.00;18.00;-7.00;25.28;61.79 -->13/03/24 15:43:21*;
MES=0.00; ; ; ; V/m; 3.54V; $GNRMC,184328.000,A,1447.4717,S,03902.7377,W,17.04,250.40,130324,,,A*42;;-2.00;-35.00;13.00;25.28;61.79 -->13/03/24 15:43:22*;
MES=0.00; ; ; ; V/m; 3.54V; $GNRMC,184328.000,A,1447.4717,S,03902.7377,W,17.04,250.40,130324,,,A*42;;0.00;-3.00;3.00;25.28;61.79 -->13/03/24 15:43:22*;
MES=0.27; ; ; ; V/m; 3.54V; $GNRMC,184328.000,A,1447.4717,S,03902.7377,W,17.04,250.40,130324,,,A*42;;-13.00;-9.00;-34.00;25.28;61.79 -->13/03/24 15:43:22*;
MES=0.31; ; ; ; V/m; 3.54V; $GNRMC,184328.000,A,1447.4717,S,03902.7377,W,17.04,250.40,130324,,,A*42;;11.00;47.00;20.00;25.28;61.79 -->13/03/24 15:43:22*;
MES=0.30; ; ; ; V/m; 3.54V; $GNRMC,184329.000,A,1447.4733,S,03902.7423,W,16.80,250.34,130324,,,A*4D;;6.00;-45.00;-10.00;25.28;61.79 -->13/03/24 15:43:23*;
MES=0.30; ; ; ; V/m; 3.54V; $GNRMC,184329.000,A,1447.4733,S,03902.7423,W,16.80,250.34,130324,,,A*4D;;12.00;47.00;1.00;25.28;61.79 -->13/03/24 15:43:23*;
MES=0.39; ; ; ; V/m; 3.54V; $GNRMC,184329.000,A,1447.4733,S,03902.7423,W,16.80,250.34,130324,,,A*4D;;-10.00;-2.00;-2.00;25.28;61.79 -->13/03/24 15:43:23*;
MES=0.40; ; ; ; V/m; 3.54V; $GNRMC,184330.000,A,1447.4749,S,03902.7467,W,15.94,250.10,130324,,,A*48;;-40.00;-38.00;-13.00;25.28;61.79 -->13/03/24 15:43:24*;
MES=0.11; ; ; ; V/m; 3.54V; $GNRMC,184330.000,A,1447.4749,S,03902.7467,W,15.94,250.10,130324,,,A*48;;31.00;25.00;-22.00;25.28;61.79 -->13/03/24 15:43:24*;
MES=0.00; ; ; ; V/m; 3.54V; $GNRMC,184330.000,A,1447.4749,S,03902.7467,W,15.94,250.10,130324,,,A*48;;-21.00;13.00;35.00;25.28;61.79 -->13/03/24 15:43:24*;
MES=0.00; ; ; ; V/m; 3.54V; $GNRMC,184330.000,A,1447.4749,S,03902.7467,W,15.94,250.10,130324,,,A*48;;30.00;-23.00;-9.00;25.28;61.79 -->13/03/24 15:43:24*;
MES=0.00; ; ; ; V/m; 3.54V; $GNRMC,184331.000,A,1447.4764,S,03902.7510,W,15.93,250.82,130324,,,A*4B;;27.00;-15.00;-44.00;25.28;61.79 -->13/03/24 15:43:25*;
MES=0.00; ; ; ; V/m; 3.54V; $GNRMC,184331.000,A,1447.4764,S,03902.7510,W,15.93,250.82,130324,,,A*4B;;-18.00;47.00;45.00;25.28;61.79 -->13/03/24 15:43:25*;
MES=0.00; ; ; ; V/m; 3.54V; $GNRMC,184331.000,A,1447.4764,S,03902.7510,W,15.93,250.82,130324,,,A*4B;;-24.00;-36.00;10.00;25.28;61.79 -->13/03/24 15:43:25*;
MES=0.39; ; ; ; V/m; 3.54V; $GNRMC,184331.000,A,1447.4764,S,03902.7510,W,15.93,250.82,130324,,,A*4B;;13.00;-2.00;-19.00;25.28;61.79 -->13/03/24 15:43:25*;
MES=0.21; ; ; ; V/m; 3.54V; $GNRMC,184332.000,A,1447.4780,S,03902.7554,W,16.37,250.45,130324,,,A*44;;-4.00;-28.00;21.00;25.28;61.79 -->13/03/24 15:43:26*;
MES=0.21; ; ; ; V/m; 3.54V; $GNRMC,184332.000,A,1447.4780,S,03902.7554,W,16.37,250.45,130324,,,A*44;;18.00;72.00;-2.00;25.28;61.79 -->13/03/24 15:43:26*;
MES=0.37; ; ; ; V/m; 3.54V; $GNRMC,184332.000,A,1447.4780,S,03902.7554,W,16.37,250.45,130324,,,A*44;;-54.00;-47.00;16.00;25.28;61.79 -->13/03/24 15:43:26*;
MES=0.24; ; ; ; V/m; 3.54V; $GNRMC,184332.000,A,1447.4780,S,03902.7554,W,16.37,250.45,130324,,,A*44;;67.00;53.00;-32.00;25.28;61.79 -->13/03/24 15:43:26*;
MES=0.11; ; ; ; V/m; 3.54V; $GNRMC,184333.000,A,1447.4796,S,03902.7599,W,16.69,249.78,130324,,,A*4E;;-102.00;32.00;105.00;25.28;61.79 -->13/03/24 15:43:27*;
MES=0.00; ; ; ; V/m; 3.54V; $GNRMC,184333.000,A,1447.4796,S,03902.7599,W,16.69,249.78,130324,,,A*4E;;111.00;-82.00;-30.00;25.28;61.79 -->13/03/24 15:43:27*;
MES=0.00; ; ; ; V/m; 3.54V; $GNRMC,184333.000,A,1447.4796,S,03902.7599,W,16.69,249.78,130324,,,A*4E;;-2.00;-26.00;-89.00;25.28;61.79 -->13/03/24 15:43:27*;
MES=0.00; ; ; ; V/m; 3.54V; $GNRMC,184334.000,A,1447.4812,S,03902.7643,W,16.68,249.88,130324,,,A*40;;-30.00;16.00;77.00;25.28;61.79 -->13/03/24 15:43:28*;
MES=0.23; ; ; ; V/m; 3.54V; $GNRMC,184334.000,A,1447.4812,S,03902.7643,W,16.68,249.88,130324,,,A*40;;-5.00;-22.00;-51.00;25.28;61.79 -->13/03/24 15:43:28*;
MES=0.00; ; ; ; V/m; 3.54V; $GNRMC,184334.000,A,1447.4812,S,03902.7643,W,16.68,249.88,130324,,,A*40;;20.00;-1.00;-28.00;25.28;61.79 -->13/03/24 15:43:28*;
MES=0.00; ; ; ; V/m; 3.54V; $GNRMC,184334.000,A,1447.4812,S,03902.7643,W,16.68,249.88,130324,,,A*40;;-32.00;14.00;16.00;25.28;61.79 -->13/03/24 15:43:28*;
MES=0.00; ; ; ; V/m; 3.54V; $GNRMC,184335.000,A,1447.4825,S,03902.7687,W,15.76,253.08,130324,,,A*42;;-5.00;-16.00;65.00;25.28;61.79 -->13/03/24 15:43:29*;
MES=0.00; ; ; ; V/m; 3.54V; $GNRMC,184335.000,A,1447.4825,S,03902.7687,W,15.76,253.08,130324,,,A*42;;22.00;14.00;7.00;25.28;61.79 -->13/03/24 15:43:29*;
MES=0.00; ; ; ; V/m; 3.54V; $GNRMC,184335.000,A,1447.4825,S,03902.7687,W,15.76,253.08,130324,,,A*42;;-38.00;-16.00;18.00;25.28;61.79 -->13/03/24 15:43:29*;
MES=0.00; ; ; ; V/m; 3.54V; $GNRMC,184335.000,A,1447.4825,S,03902.7687,W,15.76,253.08,130324,,,A*42;;27.00;0.00;-4.00;25.28;61.79 -->13/03/24 15:43:29*;
MES=0.39; ; ; ; V/m; 3.54V; $GNRMC,184336.000,A,1447.4838,S,03902.7729,W,14.78,251.88,130324,,,A*4D;;-7.00;32.00;-40.00;25.28;61.79 -->13/03/24 15:43:30*;
MES=0.41; ; ; ; V/m; 3.54V; $GNRMC,184336.000,A,1447.4838,S,03902.7729,W,14.78,251.88,130324,,,A*4D;;15.00;-14.00;24.00;25.28;61.79 -->13/03/24 15:43:30*;
MES=0.31; ; ; ; V/m; 3.54V; $GNRMC,184336.000,A,1447.4838,S,03902.7729,W,14.78,251.88,130324,,,A*4D;;-12.00;-10.00;-20.00;25.28;61.79 -->13/03/24 15:43:30*;
MES=0.26; ; ; ; V/m; 3.54V; $GNRMC,184337.000,A,1447.4851,S,03902.7767,W,13.17,250.85,130324,,,A*4B;;19.00;19.00;-68.00;25.28;61.79 -->13/03/24 15:43:31*;
MES=0.26; ; ; ; V/m; 3.54V; $GNRMC,184337.000,A,1447.4851,S,03902.7767,W,13.17,250.85,130324,,,A*4B;;-8.00;13.00;42.00;25.28;61.79 -->13/03/24 15:43:31*;
MES=0.12; ; ; ; V/m; 3.54V; $GNRMC,184337.000,A,1447.4851,S,03902.7767,W,13.17,250.85,130324,,,A*4B;;15.00;2.00;-23.00;25.28;61.79 -->13/03/24 15:43:31*;
MES=0.00; ; ; ; V/m; 3.54V; $GNRMC,184337.000,A,1447.4851,S,03902.7767,W,13.17,250.85,130324,,,A*4B;;-28.00;-22.00;-6.00;25.28;61.79 -->13/03/24 15:43:31*;
MES=0.00; ; ; ; V/m; 3.54V; $GNRMC,184338.000,A,1447.4863,S,03902.7800,W,11.10,250.58,130324,,,A*4E;;39.00;25.00;2.00;25.28;61.79 -->13/03/24 15:43:32*;
MES=0.12; ; ; ; V/m; 3.54V; $GNRMC,184338.000,A,1447.4863,S,03902.7800,W,11.10,250.58,130324,,,A*4E;;-29.00;-20.00;-18.00;25.28;61.79 -->13/03/24 15:43:32*;
MES=0.00; ; ; ; V/m; 3.54V; $GNRMC,184338.000,A,1447.4863,S,03902.7800,W,11.10,250.58,130324,,,A*4E;;-2.00;34.00;35.00;25.28;61.79 -->13/03/24 15:43:32*;
MES=0.00; ; ; ; V/m; 3.54V; $GNRMC,184338.000,A,1447.4863,S,03902.7800,W,11.10,250.58,130324,,,A*4E;;-38.00;-6.00;-13.00;25.28;61.79 -->13/03/24 15:43:32*;
MES=0.30; ; ; ; V/m; 3.54V; $GNRMC,184339.000,A,1447.4873,S,03902.7829,W,10.71,249.59,130324,,,A*4A;;66.00;-29.00;40.00;25.28;61.79 -->13/03/24 15:43:33*;
MES=0.12; ; ; ; V/m; 3.54V; $GNRMC,184339.000,A,1447.4873,S,03902.7829,W,10.71,249.59,130324,,,A*4A;;-50.00;-11.00;16.00;25.28;61.79 -->13/03/24 15:43:33*;
MES=0.00; ; ; ; V/m; 3.54V; $GNRMC,184339.000,A,1447.4873,S,03902.7829,W,10.71,249.59,130324,,,A*4A;;17.00;39.00;29.00;25.28;61.79 -->13/03/24 15:43:33*;
MES=0.00; ; ; ; V/m; 3.54V; $GNRMC,184340.000,A,1447.4888,S,03902.7856,W,10.99,249.96,130324,,,A*4D;;-12.00;-41.00;-32.00;25.28;61.79 -->13/03/24 15:43:34*;
